# 
# Header Description:
# 
# Version: v3.0.6.4 Platform: 14 Manufacturer: Google Model: Pixel 8 Pro
# 
# Raw,utcTimeMillis,TimeNanos,LeapSecond,TimeUncertaintyNanos,FullBiasNanos,BiasNanos,BiasUncertaintyNanos,DriftNanosPerSecond,DriftUncertaintyNanosPerSecond,HardwareClockDiscontinuityCount,Svid,TimeOffsetNanos,State,ReceivedSvTimeNanos,ReceivedSvTimeUncertaintyNanos,Cn0DbHz,PseudorangeRateMetersPerSecond,PseudorangeRateUncertaintyMetersPerSecond,AccumulatedDeltaRangeState,AccumulatedDeltaRangeMeters,AccumulatedDeltaRangeUncertaintyMeters,CarrierFrequencyHz,CarrierCycles,CarrierPhase,CarrierPhaseUncertainty,MultipathIndicator,SnrInDb,ConstellationType,AgcDb,BasebandCn0DbHz,FullInterSignalBiasNanos,FullInterSignalBiasUncertaintyNanos,SatelliteInterSignalBiasNanos,SatelliteInterSignalBiasUncertaintyNanos,CodeType,ChipsetElapsedRealtimeNanos
# 
# UncalAccel,utcTimeMillis,elapsedRealtimeNanos,UncalAccelXMps2,UncalAccelYMps2,UncalAccelZMps2,BiasXMps2,BiasYMps2,BiasZMps2
# 
# Accel,utcTimeMillis,elapsedRealtimeNanos,AccelXMps2,AccelYMps2,AccelZMps2
# 
# UncalGyro,utcTimeMillis,elapsedRealtimeNanos,UncalGyroXRadPerSec,UncalGyroYRadPerSec,UncalGyroZRadPerSec,DriftXRadPerSec,DriftYRadPerSec,DriftZRadPerSec
# 
# Gyro,utcTimeMillis,elapsedRealtimeNanos,GyroXRadPerSec,GyroYRadPerSec,GyroZRadPerSec
# 
# UncalMag,utcTimeMillis,elapsedRealtimeNanos,UncalMagXMicroT,UncalMagYMicroT,UncalMagZMicroT,BiasXMicroT,BiasYMicroT,BiasZMicroT
# 
# Mag,utcTimeMillis,elapsedRealtimeNanos,MagXMicroT,MagYMicroT,MagZMicroT
# 
# OrientationDeg,utcTimeMillis,elapsedRealtimeNanos,yawDeg,rollDeg,pitchDeg
# 
# Fix,Provider,LatitudeDegrees,LongitudeDegrees,AltitudeMeters,SpeedMps,AccuracyMeters,BearingDegrees,UnixTimeMillis,SpeedAccuracyMps,BearingAccuracyDegrees,elapsedRealtimeNanos,VerticalAccuracyMeters,MockLocation,NumberOfUsedSignals,VerticalSpeedAccuracyMps,SolutionType
# 
# Nav,Svid,Type,Status,MessageId,Sub-messageId,Data(Bytes)
# 
# Status,UnixTimeMillis,SignalCount,SignalIndex,ConstellationType,Svid,CarrierFrequencyHz,Cn0DbHz,AzimuthDegrees,ElevationDegrees,UsedInFix,HasAlmanacData,HasEphemerisData,BasebandCn0DbHz
# 
# Agc,utcTimeMillis,TimeNanos,LeapSecond,TimeUncertaintyNanos,FullBiasNanos,BiasNanos,BiasUncertaintyNanos,DriftNanosPerSecond,DriftUncertaintyNanosPerSecond,HardwareClockDiscontinuityCount,AgcDb,CarrierFrequencyHz,ConstellationType
# 
Fix,FLP,31.7804742000,35.5024344000,-353.9194020891157,23.54665,3.9,160.00005,1715667385449,0.13763161,1.1047506,216490800212558,1.4482832,0,,,
Status,,47,0,5,28,1561097980,42.53,249.0,75.0,1,1,1,39.02367
Status,,47,1,5,28,1176450050,31.31,249.0,75.0,1,1,1,27.304173
Status,,47,2,6,2,1575420030,37.70,43.0,66.0,1,1,1,34.192417
Status,,47,3,6,2,1176450050,26.10,43.0,66.0,1,1,1,22.087412
Status,,47,4,1,12,1575420030,40.84,40.0,65.0,1,1,1,37.330658
Status,,47,5,3,13,1600875010,29.14,0.0,65.0,1,1,1,25.633427
Status,,47,6,5,23,1561097980,42.42,137.0,61.0,1,1,1,38.911034
Status,,47,7,5,37,1561097980,32.85,316.0,61.0,1,1,1,29.344198
Status,,47,8,5,23,1176450050,27.45,137.0,61.0,1,1,1,23.439314
Status,,47,9,5,37,1176450050,15.40,316.0,61.0,0,1,1,11.389524
Status,,47,10,6,36,1575420030,40.02,68.0,58.0,1,1,1,36.511738
Status,,47,11,6,36,1176450050,24.35,68.0,58.0,1,1,1,20.34309
Status,,47,12,1,25,1575420030,40.46,334.0,56.0,1,1,1,36.949516
Status,,47,13,1,25,1176450050,33.59,334.0,56.0,1,1,1,29.57976
Status,,47,14,3,12,1601437440,45.03,113.0,53.0,1,1,1,41.515575
Status,,47,15,6,34,1575420030,44.34,178.0,52.0,1,1,1,40.828903
Status,,47,16,6,34,1176450050,25.02,178.0,52.0,1,1,1,21.010365
Status,,47,17,1,11,1575420030,46.27,61.0,48.0,1,1,1,42.758694
Status,,47,18,1,11,1176450050,27.98,61.0,48.0,1,1,1,23.970375
Status,,47,19,1,29,1575420030,45.38,266.0,43.0,1,1,1,41.869205
Status,,47,20,5,43,1561097980,34.81,42.0,38.0,1,1,1,31.298607
Status,,47,21,5,43,1176450050,29.80,42.0,38.0,1,1,1,25.792484
Status,,47,22,6,30,1575420030,31.82,316.0,37.0,1,1,1,28.31239
Status,,47,23,6,30,1176450050,19.93,316.0,37.0,0,1,1,15.924099
Status,,47,24,1,24,1575420030,41.47,178.0,36.0,1,1,1,37.95698
Status,,47,25,1,24,1176450050,31.23,178.0,36.0,1,1,1,27.215473
Status,,47,26,5,13,1561097980,34.03,97.0,32.0,1,1,1,30.51705
Status,,47,27,5,8,1561097980,30.04,83.0,30.0,1,1,1,26.53198
Status,,47,28,5,27,1561097980,31.21,230.0,27.0,1,1,1,27.696419
Status,,47,29,5,27,1176450050,27.65,230.0,27.0,1,1,1,23.644123
Status,,47,30,5,38,1561097980,35.67,70.0,26.0,1,1,1,32.160454
Status,,47,31,5,38,1176450050,20.32,70.0,26.0,0,1,1,16.306078
Status,,47,32,6,25,1575420030,35.52,101.0,26.0,1,1,1,32.01152
Status,,47,33,6,25,1176450050,28.75,101.0,26.0,1,1,1,24.74413
Status,,47,34,5,10,1561097980,30.33,72.0,25.0,1,1,1,26.819225
Status,,47,35,1,20,1575420030,40.03,109.0,22.0,1,1,1,36.518307
Status,,47,36,5,11,1561097980,39.45,42.0,16.0,1,1,1,35.938404
Status,,47,37,1,6,1575420030,37.59,38.0,14.0,1,1,1,34.083088
Status,,47,38,1,6,1176450050,29.85,38.0,14.0,1,1,1,25.83641
Status,,47,39,6,11,1575420030,32.31,37.0,14.0,1,1,1,28.803154
Status,,47,40,6,11,1176450050,22.82,37.0,14.0,0,1,1,18.810226
Status,,47,41,6,8,1575420030,29.29,234.0,12.0,1,1,1,25.777674
Status,,47,42,6,8,1176450050,18.71,234.0,12.0,0,1,1,14.70188
Status,,47,43,5,25,1561097980,33.92,138.0,10.0,1,1,1,30.413458
Status,,47,44,5,25,1176450050,25.52,138.0,10.0,1,1,1,21.512907
Status,,47,45,6,7,1575420030,28.45,284.0,10.0,0,1,1,24.93594
Status,,47,46,6,7,1176450050,18.77,284.0,10.0,0,1,1,14.757698
Status,,47,0,5,28,1561097980,42.53,249.0,75.0,1,1,1,39.02367
Status,,47,1,5,28,1176450050,31.31,249.0,75.0,1,1,1,27.304173
Status,,47,2,6,2,1575420030,37.70,43.0,66.0,1,1,1,34.192417
Status,,47,3,6,2,1176450050,26.10,43.0,66.0,1,1,1,22.087412
Status,,47,4,1,12,1575420030,40.84,40.0,65.0,1,1,1,37.330658
Status,,47,5,3,13,1600875010,29.14,0.0,65.0,1,1,1,25.633427
Status,,47,6,5,23,1561097980,42.42,137.0,61.0,1,1,1,38.911034
Status,,47,7,5,37,1561097980,32.85,316.0,61.0,1,1,1,29.344198
Status,,47,8,5,23,1176450050,27.45,137.0,61.0,1,1,1,23.439314
Status,,47,9,5,37,1176450050,15.40,316.0,61.0,0,1,1,11.389524
Status,,47,10,6,36,1575420030,40.02,68.0,58.0,1,1,1,36.511738
Status,,47,11,6,36,1176450050,24.35,68.0,58.0,1,1,1,20.34309
Status,,47,12,1,25,1575420030,40.46,334.0,56.0,1,1,1,36.949516
Status,,47,13,1,25,1176450050,33.59,334.0,56.0,1,1,1,29.57976
Status,,47,14,3,12,1601437440,45.03,113.0,53.0,1,1,1,41.515575
Status,,47,15,6,34,1575420030,44.34,178.0,52.0,1,1,1,40.828903
Status,,47,16,6,34,1176450050,25.02,178.0,52.0,1,1,1,21.010365
Status,,47,17,1,11,1575420030,46.27,61.0,48.0,1,1,1,42.758694
Status,,47,18,1,11,1176450050,27.98,61.0,48.0,1,1,1,23.970375
Status,,47,19,1,29,1575420030,45.38,266.0,43.0,1,1,1,41.869205
Status,,47,20,5,43,1561097980,34.81,42.0,38.0,1,1,1,31.298607
Status,,47,21,5,43,1176450050,29.80,42.0,38.0,1,1,1,25.792484
Status,,47,22,6,30,1575420030,31.82,316.0,37.0,1,1,1,28.31239
Status,,47,23,6,30,1176450050,19.93,316.0,37.0,0,1,1,15.924099
Status,,47,24,1,24,1575420030,41.47,178.0,36.0,1,1,1,37.95698
Status,,47,25,1,24,1176450050,31.23,178.0,36.0,1,1,1,27.215473
Status,,47,26,5,13,1561097980,34.03,97.0,32.0,1,1,1,30.51705
Status,,47,27,5,8,1561097980,30.04,83.0,30.0,1,1,1,26.53198
Status,,47,28,5,27,1561097980,31.21,230.0,27.0,1,1,1,27.696419
Status,,47,29,5,27,1176450050,27.65,230.0,27.0,1,1,1,23.644123
Status,,47,30,5,38,1561097980,35.67,70.0,26.0,1,1,1,32.160454
Status,,47,31,5,38,1176450050,20.32,70.0,26.0,0,1,1,16.306078
Status,,47,32,6,25,1575420030,35.52,101.0,26.0,1,1,1,32.01152
Status,,47,33,6,25,1176450050,28.75,101.0,26.0,1,1,1,24.74413
Status,,47,34,5,10,1561097980,30.33,72.0,25.0,1,1,1,26.819225
Status,,47,35,1,20,1575420030,40.03,109.0,22.0,1,1,1,36.518307
Status,,47,36,5,11,1561097980,39.45,42.0,16.0,1,1,1,35.938404
Status,,47,37,1,6,1575420030,37.59,38.0,14.0,1,1,1,34.083088
Status,,47,38,1,6,1176450050,29.85,38.0,14.0,1,1,1,25.83641
Status,,47,39,6,11,1575420030,32.31,37.0,14.0,1,1,1,28.803154
Status,,47,40,6,11,1176450050,22.82,37.0,14.0,0,1,1,18.810226
Status,,47,41,6,8,1575420030,29.29,234.0,12.0,1,1,1,25.777674
Status,,47,42,6,8,1176450050,18.71,234.0,12.0,0,1,1,14.70188
Status,,47,43,5,25,1561097980,33.92,138.0,10.0,1,1,1,30.413458
Status,,47,44,5,25,1176450050,25.52,138.0,10.0,1,1,1,21.512907
Status,,47,45,6,7,1575420030,28.45,284.0,10.0,0,1,1,24.93594
Status,,47,46,6,7,1176450050,18.77,284.0,10.0,0,1,1,14.757698
Fix,GPS,31.7802731820,35.5025151295,-354.33663181757106,23.593716,3.2695377,161.86897,1715667386000,0.12764223,1.1018608,216491799047276,1.4636787,0,,,
Raw,1715667386000,4723296000000,,,-1399697880704007804,0.0,3.7364698055955365,122.0,1.0,24,6,0.0,16431,195403919162581,22,35.812740325927734,673.2185621756385,0.4994800312405847,16,208689.0980857687,340282346638528860000000000000000000000,1575420030,,,,2,,1,31.778566360473633,32.30274200439453,-3.405148317018291,1.0,-3.405148317018291,1.0,C,216491849223911
Raw,1715667386000,4723296000000,,,-1399697880704007804,0.0,3.7364698055955365,122.0,1.0,24,11,0.0,16397,195403927627496,12,45.79606246948242,312.3178963450557,0.15,16,-326874.7761658827,340282346638528860000000000000000000000,1575420030,,,,2,,1,31.778566360473633,42.28606414794922,8.643837301404483,1.0,8.643837301404483,1.0,C,216491849223911
Raw,1715667386000,4723296000000,,,-1399697880704007804,0.0,3.7364698055955365,122.0,1.0,24,12,0.0,16431,195403931232355,16,40.098331451416016,58.53203924783159,0.15,16,-20852.41820163568,340282346638528860000000000000000000000,1575420030,,,,2,,1,31.778566360473633,36.58833312988281,11.874363076425249,1.0,11.874363076425249,1.0,C,216491849223911
Raw,1715667386000,4723296000000,,,-1399697880704007804,0.0,3.7364698055955365,122.0,1.0,24,20,0.0,16419,195403921678129,18,38.51445388793945,-330.71959402348193,0.15,16,-278958.7842552402,340282346638528860000000000000000000000,1575420030,,,,2,,1,31.778566360473633,35.00445556640625,8.381903488408195,1.0,8.381903488408195,1.0,C,216491849223911
Raw,1715667386000,4723296000000,,,-1399697880704007804,0.0,3.7364698055955365,122.0,1.0,24,24,0.0,16431,195403924134861,15,41.033660888671875,642.1966420836634,0.15,16,259825.10761537633,340282346638528860000000000000000000000,1575420030,,,,2,,1,31.778566360473633,37.52366256713867,-2.2992026350117816,1.0,-2.2992026350117816,1.0,C,216491849223911
Raw,1715667386000,4723296000000,,,-1399697880704007804,0.0,3.7364698055955365,122.0,1.0,24,25,0.0,16431,195403931232488,15,40.298065185546875,-233.36280134765013,0.15,16,-68797.98375276945,340282346638528860000000000000000000000,1575420030,,,,2,,1,31.778566360473633,36.78806686401367,-7.01402319812662,1.0,-7.01402319812662,1.0,C,216491849223911
Raw,1715667386000,4723296000000,,,-1399697880704007804,0.0,3.7364698055955365,122.0,1.0,24,29,0.0,16397,195403926476777,13,44.94136428833008,-272.93237999957864,0.15,16,-224297.43105761037,340282346638528860000000000000000000000,1575420030,,,,2,,1,31.778566360473633,41.431365966796875,8.818460638680785,1.0,8.818460638680785,1.0,C,216491849223911
Raw,1715667386000,4723296000000,,,-1399697880704007804,0.0,3.7364698055955365,122.0,1.0,24,6,0.0,81921,195403919162499,6,28.089345932006836,672.9294066144989,0.8692768479502591,16,208296.51438192796,340282346638528860000000000000000000000,1176450050,,,,2,,1,25.30018424987793,24.079345703125,-2.153536392074096,1.149369446132664,-2.153536392074096,1.0,Q,216491849223911
Raw,1715667386000,4723296000000,,,-1399697880704007804,0.0,3.7364698055955365,122.0,1.0,24,11,0.0,81921,195403927627426,6,27.076038360595703,312.5683342355853,0.9127693908382599,16,-327002.20759944187,340282346638528860000000000000000000000,1176450050,,,,2,,1,25.30018424987793,23.066038131713867,10.768559749319673,1.149369446132664,10.768559749319673,1.0,Q,216491849223911
Raw,1715667386000,4723296000000,,,-1399697880704007804,0.0,3.7364698055955365,122.0,1.0,24,24,0.0,81921,195403924134791,6,30.59833335876465,642.3591472363642,0.753747438567212,16,259452.47071394138,340282346638528860000000000000000000000,1176450050,,,,2,,1,25.30018424987793,26.588333129882812,1.1931295095813919,1.149369446132664,1.1931295095813919,1.0,Q,216491849223911
Raw,1715667386000,4723296000000,,,-1399697880704007804,0.0,3.7364698055955365,122.0,1.0,24,25,0.0,81921,195403931232424,6,32.57238006591797,-233.72715984910724,0.6662535123660924,16,-69247.14720015766,340282346638528860000000000000000000000,1176450050,,,,2,,1,25.30018424987793,28.562379837036133,-4.103569295754867,1.149369446132664,-4.103569295754867,1.0,Q,216491849223911
Raw,1715667386000,4723296000000,,,-1399697880704007804,0.0,3.7364698055955365,122.0,1.0,24,13,0.0,32801,33385934638836,79,29.007165908813477,-260.87431362391703,0.8029066558232154,16,437823.8258462738,340282346638528860000000000000000000000,1600875010,,,,2,,3,48.69502639770508,25.49716567993164,20.489096958409416,2.0000000474974513,20.489096958409416,2.0000000474974513,C,216491849223911
Raw,1715667386000,4723296000000,,,-1399697880704007804,0.0,3.7364698055955365,122.0,1.0,24,12,0.0,32801,33385932873459,33,44.62821960449219,323.83077974617845,0.15,16,522967.9431088203,340282346638528860000000000000000000000,1601437440,,,,2,,3,48.69502639770508,41.118221282958984,23.748725960243917,2.0000000474974513,23.748725960243917,2.0000000474974513,C,216491849223911
Raw,1715667386000,4723296000000,,,-1399697880704007804,0.0,3.7364698055955365,122.0,1.0,24,8,0.0,81955,195389870788294,19,28.98772430419922,-249.58037592349683,0.8048870995029227,16,10551.77528462017,340282346638528860000000000000000000000,1561097980,,,,2,,5,47.554473876953125,25.477724075317383,8.26300864870402,4.8356409757302465,8.26300864870402,1.5000000237487257,I,216491849223911
Raw,1715667386000,4723296000000,,,-1399697880704007804,0.0,3.7364698055955365,122.0,1.0,24,10,0.0,81955,195389869750109,17,30.329225540161133,62.90018746592813,0.7443744967542476,16,213372.4265486291,340282346638528860000000000000000000000,1561097980,,,,2,,5,47.554473876953125,26.819225311279297,13.263009023442432,4.8356409757302465,13.263009023442432,1.5000000237487257,I,216491849223911
Raw,1715667386000,4723296000000,,,-1399697880704007804,0.0,3.7364698055955365,122.0,1.0,24,11,0.0,81955,195389915347923,9,37.90238571166992,613.3330276334518,0.15,16,130346.89214954723,340282346638528860000000000000000000000,1561097980,,,,2,,5,47.554473876953125,34.39238739013672,14.763008976808202,4.8356409757302465,14.763008976808202,1.5000000237487257,I,216491849223911
Raw,1715667386000,4723296000000,,,-1399697880704007804,0.0,3.7364698055955365,122.0,1.0,24,13,0.0,81955,195389871607920,13,33.73519515991211,-279.36697737880263,0.5915460324467521,16,-19465.834524519938,340282346638528860000000000000000000000,1561097980,,,,2,,5,47.554473876953125,30.225194931030273,29.16300884723109,4.8356409757302465,29.16300884723109,1.5000000237487257,I,216491849223911
Raw,1715667386000,4723296000000,,,-1399697880704007804,0.0,3.7364698055955365,122.0,1.0,24,23,0.0,81955,195389925289617,7,41.32929992675781,313.3974240729592,0.15,16,-170400.69970252138,340282346638528860000000000000000000000,1561097980,,,,2,,5,47.554473876953125,37.81930160522461,-3.236991258859799,4.8356409757302465,-3.236991258859799,1.5000000237487257,I,216491849223911
Raw,1715667386000,4723296000000,,,-1399697880704007804,0.0,3.7364698055955365,122.0,1.0,24,25,0.0,81955,195389913559724,14,32.75968551635742,601.0744541660665,0.6357647579875016,16,161055.6667694594,340282346638528860000000000000000000000,1561097980,,,,2,,5,47.554473876953125,29.24968719482422,18.663008949998556,4.8356409757302465,18.663008949998556,1.5000000237487257,I,216491849223911
Raw,1715667386000,4723296000000,,,-1399697880704007804,0.0,3.7364698055955365,122.0,1.0,24,27,0.0,81955,195389918922422,16,31.206418991088867,-465.3440362376916,0.7065779844126214,16,329665.02132040507,340282346638528860000000000000000000000,1561097980,,,,2,,5,47.554473876953125,27.69641876220703,23.163009033768017,4.8356409757302465,23.163009033768017,1.5000000237487257,I,216491849223911
Raw,1715667386000,4723296000000,,,-1399697880704007804,0.0,3.7364698055955365,122.0,1.0,24,28,0.0,81955,195389927843296,7,41.453125,-72.87280797125788,0.15,16,451862.1307299921,340282346638528860000000000000000000000,1561097980,,,,2,,5,47.554473876953125,37.9431266784668,23.26300897764048,4.8356409757302465,23.26300897764048,1.5000000237487257,I,216491849223911
Raw,1715667386000,4723296000000,,,-1399697880704007804,0.0,3.7364698055955365,122.0,1.0,24,37,0.0,81955,195389925102448,15,31.972949981689453,-236.28244090322016,0.6696221504761253,16,-130408.3430816083,340282346638528860000000000000000000000,1561097980,,,,2,,5,47.554473876953125,28.462949752807617,35.56300923146281,4.8356409757302465,35.56300923146281,1.5000000237487257,I,216491849223911
Raw,1715667386000,4723296000000,,,-1399697880704007804,0.0,3.7364698055955365,122.0,1.0,24,38,0.0,81955,195389869996297,11,35.67045211791992,-154.18813012409635,0.5042297743637172,16,-442085.47878335975,340282346638528860000000000000000000000,1561097980,,,,2,,5,47.554473876953125,32.16045379638672,16.76300904717569,4.8356409757302465,16.76300904717569,1.5000000237487257,I,216491849223911
Raw,1715667386000,4723296000000,,,-1399697880704007804,0.0,3.7364698055955365,122.0,1.0,24,43,0.0,81967,195389921691360,12,34.655906677246094,510.96718744614736,0.5483589336051475,16,-316968.3661314518,340282346638528860000000000000000000000,1561097980,,,,2,,5,47.554473876953125,31.145906448364258,22.063008855892114,4.8356409757302465,22.063008855892114,1.5000000237487257,I,216491849223911
Raw,1715667386000,4723296000000,,,-1399697880704007804,0.0,3.7364698055955365,122.0,1.0,24,23,0.0,81959,195389925289680,6,25.894983291625977,312.8091608733755,0.9690570337567666,16,-171613.0283311631,340282346638528860000000000000000000000,1176450050,,,,2,,5,25.30018424987793,21.88498306274414,28.60906536848153,1.6493694698813897,28.60906536848153,1.5000000237487257,Q,216491849223911
Raw,1715667386000,4723296000000,,,-1399697880704007804,0.0,3.7364698055955365,122.0,1.0,24,25,0.0,81959,195389913559745,6,24.265377044677734,601.4538600720784,1.040228658513759,16,159120.67141814463,340282346638528860000000000000000000000,1176450050,,,,2,,5,25.30018424987793,20.2553768157959,36.40889159615457,1.6493694698813897,36.40889159615457,1.5000000237487257,Q,216491849223911
Raw,1715667386000,4723296000000,,,-1399697880704007804,0.0,3.7364698055955365,122.0,1.0,24,27,0.0,81959,195389918922468,6,24.35626792907715,-465.4198697034549,1.0371060531367502,16,325548.3960118138,340282346638528860000000000000000000000,1176450050,,,,2,,5,25.30018424987793,20.346267700195312,35.76860788179194,1.6493694698813897,35.76860788179194,1.5000000237487257,Q,216491849223911
Raw,1715667386000,4723296000000,,,-1399697880704007804,0.0,3.7364698055955365,122.0,1.0,24,28,0.0,81959,195389927843342,6,30.441112518310547,-72.85547704211604,0.7650820520818771,16,460552.3368903493,340282346638528860000000000000000000000,1176450050,,,,2,,5,25.30018424987793,26.43111228942871,36.23426905415704,1.6493694698813897,36.23426905415704,1.5000000237487257,Q,216491849223911
Raw,1715667386000,4723296000000,,,-1399697880704007804,0.0,3.7364698055955365,122.0,1.0,24,37,0.0,16418,195389925102478,1000000000,11.123281478881836,-235.75700871223626,299792458,16,-130155.75242581457,340282346638528860000000000000000000000,1176450050,,,,1,,5,25.30018424987793,7.11328125,33.90596319233153,1.6493694698813897,33.90596319233153,1.5000000237487257,Q,216491849223911
Raw,1715667386000,4723296000000,,,-1399697880704007804,0.0,3.7364698055955365,122.0,1.0,24,38,0.0,81959,195389869996330,6,20.316078186035156,-154.4712190079748,1.227975731172938,16,-441814.3063199546,340282346638528860000000000000000000000,1176450050,,,,2,,5,25.30018424987793,16.30607795715332,31.868694370316028,1.6493694698813897,31.868694370316028,1.5000000237487257,Q,216491849223911
Raw,1715667386000,4723296000000,,,-1399697880704007804,0.0,3.7364698055955365,122.0,1.0,24,43,0.0,81959,195389921691301,6,29.471446990966797,510.9836492726479,0.8075801461066079,16,-311692.28383663984,340282346638528860000000000000000000000,1176450050,,,,2,,5,25.30018424987793,25.46144676208496,30.588126146311996,1.6493694698813897,30.588126146311996,1.5000000237487257,Q,216491849223911
Raw,1715667386000,4723296000000,,,-1399697880704007804,0.0,3.7364698055955365,122.0,1.0,24,2,0.0,85026,195403921174787,19,37.702415466308594,26.092868366268505,0.15,16,-31725.83454626514,340282346638528860000000000000000000000,1575420030,,,,2,,6,31.778566360473633,34.19241714477539,5.762558358982446,1.5000000237487257,5.762558358982446,1.5000000237487257,C,216491849223911
Raw,1715667386000,4723296000000,,,-1399697880704007804,0.0,3.7364698055955365,122.0,1.0,24,7,0.0,85026,195403907096564,58,25.787609100341797,262.97379294572215,299.79371829398815,16,-339988.78675541247,340282346638528860000000000000000000000,1575420030,,,,2,,6,31.778566360473633,22.27760887145996,-1.222360817051661,1.5000000237487257,-1.222360817051661,1.5000000237487257,C,216491849223911
Raw,1715667386000,4723296000000,,,-1399697880704007804,0.0,3.7364698055955365,122.0,1.0,24,8,0.0,85026,195403907502187,52,25.545198440551758,460.4746756742777,0.9591024934620838,16,-464494.21894983837,340282346638528860000000000000000000000,1575420030,,,,2,,6,31.778566360473633,22.035198211669922,5.995388945164998,1.5000000237487257,5.995388945164998,1.5000000237487257,C,216491849223911
Raw,1715667386000,4723296000000,,,-1399697880704007804,0.0,3.7364698055955365,122.0,1.0,24,11,0.0,85026,195403911436023,35,30.467742919921875,545.0421799109793,0.7377292831071722,16,-405286.0762985962,340282346638528860000000000000000000000,1575420030,,,,2,,6,31.778566360473633,26.95774269104004,16.705597897759322,1.5000000237487257,16.705597897759322,1.5000000237487257,C,216491849223911
Raw,1715667386000,4723296000000,,,-1399697880704007804,0.0,3.7364698055955365,122.0,1.0,24,25,0.0,85026,195403912577034,25,34.489723205566406,327.7029898791045,0.5563510699578529,16,103459.73737547323,340282346638528860000000000000000000000,1575420030,,,,2,,6,31.778566360473633,30.979724884033203,1.105945541823092,1.5000000237487257,1.105945541823092,1.5000000237487257,C,216491849223911
Raw,1715667386000,4723296000000,,,-1399697880704007804,0.0,3.7364698055955365,122.0,1.0,24,30,0.0,85026,195403915282045,41,28.444599151611328,-287.42625137801247,0.828680049088037,16,32638.977044661042,340282346638528860000000000000000000000,1575420030,,,,2,,6,31.778566360473633,24.934598922729492,2.0372680853729936,1.5000000237487257,2.0372680853729936,1.5000000237487257,C,216491849223911
Raw,1715667386000,4723296000000,,,-1399697880704007804,0.0,3.7364698055955365,122.0,1.0,24,34,0.0,85026,195403918836144,12,43.50216293334961,-385.1719760064543,0.15,16,422229.4343592545,340282346638528860000000000000000000000,1575420030,,,,2,,6,31.778566360473633,39.992164611816406,-2.153683360601563,1.5000000237487257,-2.153683360601563,1.5000000237487257,C,216491849223911
Raw,1715667386000,4723296000000,,,-1399697880704007804,0.0,3.7364698055955365,122.0,1.0,24,36,0.0,85026,195403919730052,16,40.02173614501953,156.10990351759153,0.15,16,229547.40061163428,340282346638528860000000000000000000000,1575420030,,,,2,,6,31.778566360473633,36.51173782348633,-2.3865141456038086,1.5000000237487257,-2.3865141456038086,1.5000000237487257,C,216491849223911
Raw,1715667386000,4723296000000,,,-1399697880704007804,0.0,3.7364698055955365,122.0,1.0,24,2,0.0,84003,195403921174719,6,25.644948959350586,25.94868679425582,0.9795605545571986,16,-31933.25340307651,340282346638528860000000000000000000000,1176450050,,,,2,,6,25.30018424987793,21.63494873046875,9.826058726518433,1.6493694698813897,9.826058726518433,1.5000000237487257,Q,216491849223911
Raw,1715667386000,4723296000000,,,-1399697880704007804,0.0,3.7364698055955365,122.0,1.0,24,7,0.0,84003,195403907096492,6,18.767698287963867,263.5409250222617,1.286290548014275,16,-338855.227333394,340282346638528860000000000000000000000,1176450050,,,,2,,6,25.30018424987793,14.757698059082031,-2.6999971335922983,1.6493694698813897,-2.6999971335922983,1.5000000237487257,Q,216491849223911
Raw,1715667386000,4723296000000,,,-1399697880704007804,0.0,3.7364698055955365,122.0,1.0,24,8,0.0,16418,195403907502086,1000000000,15.411537170410156,460.8679190576379,299792458,16,-456401.00475453725,340282346638528860000000000000000000000,1176450050,,,,2,,6,25.30018424987793,11.40153694152832,10.243593603743948,1.6493694698813897,10.243593603743948,1.5000000237487257,Q,216491849223911
Raw,1715667386000,4723296000000,,,-1399697880704007804,0.0,3.7364698055955365,122.0,1.0,24,11,0.0,84003,195403911435954,17,19.804712295532227,545.4700169877101,1.2404376618774737,16,-389307.4509484994,340282346638528860000000000000000000000,1176450050,,,,2,,6,25.30018424987793,15.79471206665039,29.45021227113556,1.6493694698813897,29.45021227113556,1.5000000237487257,Q,216491849223911
Raw,1715667386000,4723296000000,,,-1399697880704007804,0.0,3.7364698055955365,122.0,1.0,24,25,0.0,84003,195403912576946,6,27.586830139160156,328.00022298243994,0.8906898835009915,16,101454.2978159937,340282346638528860000000000000000000000,1176450050,,,,2,,6,25.30018424987793,23.57682991027832,1.4753546209582513,1.6493694698813897,1.4753546209582513,1.5000000237487257,Q,216491849223911
Raw,1715667386000,4723296000000,,,-1399697880704007804,0.0,3.7364698055955365,122.0,1.0,24,30,0.0,84003,195403915281965,9,16.28780746459961,-286.6787549415542,1.3992806812517768,16,28116.844263722996,340282346638528860000000000000000000000,1176450050,,,,2,,6,25.30018424987793,12.277807235717773,3.145495521598166,1.6493694698813897,3.145495521598166,1.5000000237487257,Q,216491849223911
Raw,1715667386000,4723296000000,,,-1399697880704007804,0.0,3.7364698055955365,122.0,1.0,24,34,0.0,84003,195403918836067,19,22.20574378967285,-385.0032678466664,1.1337971169170906,16,417503.350345353,340282346638528860000000000000000000000,1176450050,,,,2,,6,25.30018424987793,18.195743560791016,-4.370138233051907,1.6493694698813897,-4.370138233051907,1.5000000237487257,Q,216491849223911
Raw,1715667386000,4723296000000,,,-1399697880704007804,0.0,3.7364698055955365,122.0,1.0,24,36,0.0,84003,195403919729978,6,24.353090286254883,155.7758443199832,1.0373941564020446,16,228621.2332925678,340282346638528860000000000000000000000,1176450050,,,,2,,6,25.30018424987793,20.343090057373047,-4.78767311027742,1.6493694698813897,-4.78767311027742,1.5000000237487257,Q,216491849223911
Agc,1715667386000,4723296000000,,,-1399697880704007804,0.0,3.7364698055955365,122.0,1.0,24,28.319761276245117,1575420000,1
Agc,1715667386000,4723296000000,,,-1399697880704007804,0.0,3.7364698055955365,122.0,1.0,24,26.25796127319336,1176450000,1
Agc,1715667386000,4723296000000,,,-1399697880704007804,0.0,3.7364698055955365,122.0,1.0,24,48.3543586730957,1602000000,3
Agc,1715667386000,4723296000000,,,-1399697880704007804,0.0,3.7364698055955365,122.0,1.0,24,28.319761276245117,1575420000,6
Agc,1715667386000,4723296000000,,,-1399697880704007804,0.0,3.7364698055955365,122.0,1.0,24,26.25796127319336,1176450000,6
Agc,1715667386000,4723296000000,,,-1399697880704007804,0.0,3.7364698055955365,122.0,1.0,24,46.79038619995117,1561096000,5
Agc,1715667386000,4723296000000,,,-1399697880704007804,0.0,3.7364698055955365,122.0,1.0,24,28.319761276245117,1575420000,5
Agc,1715667386000,4723296000000,,,-1399697880704007804,0.0,3.7364698055955365,122.0,1.0,24,26.25796127319336,1176450000,5
Fix,FLP,31.7802735000,35.5025158000,-353.98976968326633,23.594002,3.9,160.99712,1715667386448,0.12764223,1.1018608,216491799047276,1.4359417,0,,,
Status,1715667386000,47,0,5,28,1561097980,42.54,249.0,75.0,1,1,1,39.031345
Status,1715667386000,47,1,5,28,1176450050,31.28,249.0,75.0,1,1,1,27.273277
Status,1715667386000,47,2,6,2,1575420030,37.68,44.0,66.0,1,1,1,34.17119
Status,1715667386000,47,3,6,2,1176450050,25.83,44.0,66.0,1,1,1,21.819298
Status,1715667386000,47,4,1,12,1575420030,40.70,40.0,65.0,1,1,1,37.18973
Status,1715667386000,47,5,3,13,1600875010,29.09,0.0,65.0,1,1,1,25.584316
Status,1715667386000,47,6,5,23,1561097980,42.38,137.0,61.0,1,1,1,38.871227
Status,1715667386000,47,7,5,37,1561097980,33.94,316.0,61.0,1,1,1,30.434969
Status,1715667386000,47,8,5,23,1176450050,27.29,137.0,61.0,1,1,1,23.280125
Status,1715667386000,47,9,5,37,1176450050,15.33,316.0,61.0,0,1,1,11.32129
Status,1715667386000,47,10,6,36,1575420030,39.95,68.0,58.0,1,1,1,36.443047
Status,1715667386000,47,11,6,36,1176450050,24.11,68.0,58.0,1,1,1,20.10144
Status,1715667386000,47,12,1,25,1575420030,40.52,334.0,56.0,1,1,1,37.01301
Status,1715667386000,47,13,1,25,1176450050,33.57,334.0,56.0,1,1,1,29.562649
Status,1715667386000,47,14,3,12,1601437440,44.94,113.0,53.0,1,1,1,41.42516
Status,1715667386000,47,15,6,34,1575420030,44.91,178.0,52.0,1,1,1,41.400356
Status,1715667386000,47,16,6,34,1176450050,26.17,178.0,52.0,1,1,1,22.162739
Status,1715667386000,47,17,1,11,1575420030,46.21,61.0,48.0,1,1,1,42.702007
Status,1715667386000,47,18,1,11,1176450050,27.97,61.0,48.0,1,1,1,23.964533
Status,1715667386000,47,19,1,29,1575420030,45.35,266.0,43.0,1,1,1,41.84395
Status,1715667386000,47,20,5,43,1561097980,34.65,42.0,38.0,1,1,1,31.14447
Status,1715667386000,47,21,5,43,1176450050,30.06,42.0,38.0,1,1,1,26.052288
Status,1715667386000,47,22,6,30,1575420030,31.87,316.0,37.0,1,1,1,28.35599
Status,1715667386000,47,23,6,30,1176450050,19.61,316.0,37.0,0,1,1,15.5981045
Status,1715667386000,47,24,1,24,1575420030,41.37,178.0,36.0,1,1,1,37.863438
Status,1715667386000,47,25,1,24,1176450050,31.92,178.0,36.0,1,1,1,27.912083
Status,1715667386000,47,26,5,13,1561097980,33.83,97.0,32.0,1,1,1,30.323008
Status,1715667386000,47,27,5,8,1561097980,29.62,83.0,30.0,1,1,1,26.113476
Status,1715667386000,47,28,5,27,1561097980,31.10,230.0,27.0,1,1,1,27.592182
Status,1715667386000,47,29,5,27,1176450050,27.62,230.0,27.0,1,1,1,23.614277
Status,1715667386000,47,30,5,38,1561097980,35.64,70.0,26.0,1,1,1,32.134796
Status,1715667386000,47,31,5,38,1176450050,20.01,70.0,26.0,0,1,1,15.997716
Status,1715667386000,47,32,6,25,1575420030,35.23,101.0,26.0,1,1,1,31.716093
Status,1715667386000,47,33,6,25,1176450050,28.73,101.0,26.0,1,1,1,24.720972
Status,1715667386000,47,34,5,10,1561097980,30.27,72.0,25.0,1,1,1,26.764467
Status,1715667386000,47,35,1,20,1575420030,39.90,109.0,22.0,1,1,1,36.392036
Status,1715667386000,47,36,5,11,1561097980,39.25,42.0,16.0,1,1,1,35.73878
Status,1715667386000,47,37,1,6,1575420030,37.24,38.0,14.0,1,1,1,33.72624
Status,1715667386000,47,38,1,6,1176450050,30.61,38.0,14.0,1,1,1,26.603245
Status,1715667386000,47,39,6,11,1575420030,32.02,37.0,14.0,1,1,1,28.51353
Status,1715667386000,47,40,6,11,1176450050,23.72,37.0,14.0,0,1,1,19.708193
Status,1715667386000,47,41,6,8,1575420030,28.88,234.0,12.0,0,1,1,25.365196
Status,1715667386000,47,42,6,8,1176450050,18.39,234.0,12.0,0,1,1,14.380735
Status,1715667386000,47,43,5,25,1561097980,33.81,138.0,10.0,1,1,1,30.297184
Status,1715667386000,47,44,5,25,1176450050,26.07,138.0,10.0,1,1,1,22.059673
Status,1715667386000,47,45,6,7,1575420030,28.33,284.0,10.0,1,1,1,24.817505
Status,1715667386000,47,46,6,7,1176450050,18.53,284.0,10.0,0,1,1,14.52265
Fix,GPS,31.7800718278,35.5025957947,-354.69244935715363,23.680412,3.2409272,159.95332,1715667387000,0.121600665,1.1037415,216492809935012,1.4581202,0,,,
Status,1715667387000,47,0,5,28,1561097980,42.54,249.0,75.0,1,1,1,39.031345
Status,1715667387000,47,1,5,28,1176450050,31.28,249.0,75.0,1,1,1,27.273277
Status,1715667387000,47,2,6,2,1575420030,37.68,44.0,66.0,1,1,1,34.17119
Status,1715667387000,47,3,6,2,1176450050,25.83,44.0,66.0,1,1,1,21.819298
Status,1715667387000,47,4,1,12,1575420030,40.70,40.0,65.0,1,1,1,37.18973
Status,1715667387000,47,5,3,13,1600875010,29.09,0.0,65.0,1,1,1,25.584316
Status,1715667387000,47,6,5,23,1561097980,42.38,137.0,61.0,1,1,1,38.871227
Status,1715667387000,47,7,5,37,1561097980,33.94,316.0,61.0,1,1,1,30.434969
Status,1715667387000,47,8,5,23,1176450050,27.29,137.0,61.0,1,1,1,23.280125
Status,1715667387000,47,9,5,37,1176450050,15.33,316.0,61.0,0,1,1,11.32129
Status,1715667387000,47,10,6,36,1575420030,39.95,68.0,58.0,1,1,1,36.443047
Status,1715667387000,47,11,6,36,1176450050,24.11,68.0,58.0,1,1,1,20.10144
Status,1715667387000,47,12,1,25,1575420030,40.52,334.0,56.0,1,1,1,37.01301
Status,1715667387000,47,13,1,25,1176450050,33.57,334.0,56.0,1,1,1,29.562649
Status,1715667387000,47,14,3,12,1601437440,44.94,113.0,53.0,1,1,1,41.42516
Status,1715667387000,47,15,6,34,1575420030,44.91,178.0,52.0,1,1,1,41.400356
Status,1715667387000,47,16,6,34,1176450050,26.17,178.0,52.0,1,1,1,22.162739
Status,1715667387000,47,17,1,11,1575420030,46.21,61.0,48.0,1,1,1,42.702007
Status,1715667387000,47,18,1,11,1176450050,27.97,61.0,48.0,1,1,1,23.964533
Status,1715667387000,47,19,1,29,1575420030,45.35,266.0,43.0,1,1,1,41.84395
Status,1715667387000,47,20,5,43,1561097980,34.65,42.0,38.0,1,1,1,31.14447
Status,1715667387000,47,21,5,43,1176450050,30.06,42.0,38.0,1,1,1,26.052288
Status,1715667387000,47,22,6,30,1575420030,31.87,316.0,37.0,1,1,1,28.35599
Status,1715667387000,47,23,6,30,1176450050,19.61,316.0,37.0,0,1,1,15.5981045
Status,1715667387000,47,24,1,24,1575420030,41.37,178.0,36.0,1,1,1,37.863438
Status,1715667387000,47,25,1,24,1176450050,31.92,178.0,36.0,1,1,1,27.912083
Status,1715667387000,47,26,5,13,1561097980,33.83,97.0,32.0,1,1,1,30.323008
Status,1715667387000,47,27,5,8,1561097980,29.62,83.0,30.0,1,1,1,26.113476
Status,1715667387000,47,28,5,27,1561097980,31.10,230.0,27.0,1,1,1,27.592182
Status,1715667387000,47,29,5,27,1176450050,27.62,230.0,27.0,1,1,1,23.614277
Status,1715667387000,47,30,5,38,1561097980,35.64,70.0,26.0,1,1,1,32.134796
Status,1715667387000,47,31,5,38,1176450050,20.01,70.0,26.0,0,1,1,15.997716
Status,1715667387000,47,32,6,25,1575420030,35.23,101.0,26.0,1,1,1,31.716093
Status,1715667387000,47,33,6,25,1176450050,28.73,101.0,26.0,1,1,1,24.720972
Status,1715667387000,47,34,5,10,1561097980,30.27,72.0,25.0,1,1,1,26.764467
Status,1715667387000,47,35,1,20,1575420030,39.90,109.0,22.0,1,1,1,36.392036
Status,1715667387000,47,36,5,11,1561097980,39.25,42.0,16.0,1,1,1,35.73878
Status,1715667387000,47,37,1,6,1575420030,37.24,38.0,14.0,1,1,1,33.72624
Status,1715667387000,47,38,1,6,1176450050,30.61,38.0,14.0,1,1,1,26.603245
Status,1715667387000,47,39,6,11,1575420030,32.02,37.0,14.0,1,1,1,28.51353
Status,1715667387000,47,40,6,11,1176450050,23.72,37.0,14.0,0,1,1,19.708193
Status,1715667387000,47,41,6,8,1575420030,28.88,234.0,12.0,0,1,1,25.365196
Status,1715667387000,47,42,6,8,1176450050,18.39,234.0,12.0,0,1,1,14.380735
Status,1715667387000,47,43,5,25,1561097980,33.81,138.0,10.0,1,1,1,30.297184
Status,1715667387000,47,44,5,25,1176450050,26.07,138.0,10.0,1,1,1,22.059673
Status,1715667387000,47,45,6,7,1575420030,28.33,284.0,10.0,1,1,1,24.817505
Status,1715667387000,47,46,6,7,1176450050,18.53,284.0,10.0,0,1,1,14.52265
Fix,FLP,31.7800716000,35.5025962000,-354.19507253526734,23.679619,3.9,159.00594,1715667387458,0.121600665,1.1037415,216492809935012,1.4250455,0,,,
Raw,1715667387000,4724296000000,,,-1399697880704007685,0.0,3.7360256423990488,121.0,1.0,24,6,0.0,16431,195404919160353,26,34.02458572387695,672.7503373879281,0.5798908973927173,16,209361.85372783174,340282346638528860000000000000000000000,1575420030,,,,2,,1,28.319761276245117,30.51458740234375,-3.405148317018291,1.0,-3.405148317018291,1.0,C,216492860489944
Raw,1715667387000,4724296000000,,,-1399697880704007685,0.0,3.7360256423990488,121.0,1.0,24,11,0.0,16397,195404927626470,12,45.70183563232422,312.36547545436156,0.15,16,-326562.4545238619,340282346638528860000000000000000000000,1575420030,,,,2,,1,28.319761276245117,42.191837310791016,8.643837301404483,1.0,8.643837301404483,1.0,C,216492860489944
Raw,1715667387000,4724296000000,,,-1399697880704007685,0.0,3.7360256423990488,121.0,1.0,24,12,0.0,16431,195404931232165,17,39.431396484375,58.7540864520777,0.15,16,-20793.785869288826,340282346638528860000000000000000000000,1575420030,,,,2,,1,28.319761276245117,35.9213981628418,11.874363076425249,1.0,11.874363076425249,1.0,C,216492860489944
Raw,1715667387000,4724296000000,,,-1399697880704007685,0.0,3.7360256423990488,121.0,1.0,24,20,0.0,16419,195404921679218,18,38.765586853027344,-330.8075267613108,0.15,16,-279289.6893033354,340282346638528860000000000000000000000,1575420030,,,,2,,1,28.319761276245117,35.25558853149414,8.381903488408195,1.0,8.381903488408195,1.0,C,216492860489944
Raw,1715667387000,4724296000000,,,-1399697880704007685,0.0,3.7360256423990488,121.0,1.0,24,24,0.0,16431,195404924132722,15,40.53154373168945,642.2352234244472,0.15,16,260467.36044410057,340282346638528860000000000000000000000,1575420030,,,,2,,1,28.319761276245117,37.02154541015625,-2.2992026350117816,1.0,-2.2992026350117816,1.0,C,216492860489944
Raw,1715667387000,4724296000000,,,-1399697880704007685,0.0,3.7360256423990488,121.0,1.0,24,25,0.0,16431,195404931233269,15,40.523006439208984,-233.72666565348766,0.15,16,-69031.6412612522,340282346638528860000000000000000000000,1575420030,,,,2,,1,28.319761276245117,37.01300811767578,-7.01402319812662,1.0,-7.01402319812662,1.0,C,216492860489944
Raw,1715667387000,4724296000000,,,-1399697880704007685,0.0,3.7360256423990488,121.0,1.0,24,29,0.0,16397,195404926477686,13,45.12662887573242,-272.89391794739265,0.15,16,-224570.2242754923,340282346638528860000000000000000000000,1575420030,,,,2,,1,28.319761276245117,41.61663055419922,8.818460638680785,1.0,8.818460638680785,1.0,C,216492860489944
Raw,1715667387000,4724296000000,,,-1399697880704007685,0.0,3.7360256423990488,121.0,1.0,24,6,0.0,81921,195404919160257,6,30.613245010375977,672.6822406397955,0.7557795384700867,16,208969.4311056921,340282346638528860000000000000000000000,1176450050,,,,2,,1,26.25796127319336,26.60324478149414,-2.153536392074096,1.149369446132664,-2.153536392074096,1.0,Q,216492860489944
Raw,1715667387000,4724296000000,,,-1399697880704007685,0.0,3.7360256423990488,121.0,1.0,24,11,0.0,81921,195404927626388,6,27.921960830688477,312.24581194950997,0.8747289759171424,16,-326689.8644924329,340282346638528860000000000000000000000,1176450050,,,,2,,1,26.25796127319336,23.91196060180664,10.768559749319673,1.149369446132664,10.768559749319673,1.0,Q,216492860489944
Raw,1715667387000,4724296000000,,,-1399697880704007685,0.0,3.7360256423990488,121.0,1.0,24,24,0.0,81921,195404924132649,6,31.922082901000977,642.487501767629,0.6942195658563142,16,260094.98745082977,340282346638528860000000000000000000000,1176450050,,,,2,,1,26.25796127319336,27.91208267211914,1.1931295095813919,1.149369446132664,1.1931295095813919,1.0,Q,216492860489944
Raw,1715667387000,4724296000000,,,-1399697880704007685,0.0,3.7360256423990488,121.0,1.0,24,25,0.0,81921,195404931233207,6,33.41865921020508,-233.56850601399356,0.6281973875626714,16,-69480.67052665509,340282346638528860000000000000000000000,1176450050,,,,2,,1,26.25796127319336,29.408658981323242,-4.103569295754867,1.149369446132664,-4.103569295754867,1.0,Q,216492860489944
Raw,1715667387000,4724296000000,,,-1399697880704007685,0.0,3.7360256423990488,121.0,1.0,24,13,0.0,32801,33386934639721,81,28.652315139770508,-260.6869794016394,0.8188640353402761,16,437562.1560256974,340282346638528860000000000000000000000,1600875010,,,,2,,3,48.3543586730957,25.142314910888672,20.489096958409416,2.0000000474974513,20.489096958409416,2.0000000474974513,C,216492860489944
Raw,1715667387000,4724296000000,,,-1399697880704007685,0.0,3.7360256423990488,121.0,1.0,24,12,0.0,32801,33386932872371,33,44.121402740478516,323.51265409699454,0.15,16,523291.58170238463,340282346638528860000000000000000000000,1601437440,,,,2,,3,48.3543586730957,40.61140441894531,23.748725960243917,2.0000000474974513,23.748725960243917,2.0000000474974513,C,216492860489944
Raw,1715667387000,4724296000000,,,-1399697880704007685,0.0,3.7360256423990488,121.0,1.0,24,8,0.0,81955,195390870789120,25,25.8569393157959,-249.46693246696066,0.9456751372361607,16,10302.329846306204,340282346638528860000000000000000000000,1561097980,,,,2,,5,46.79038619995117,22.346939086914062,8.26300864870402,4.8356409757302465,8.26300864870402,1.5000000237487257,I,216492860489944
Raw,1715667387000,4724296000000,,,-1399697880704007685,0.0,3.7360256423990488,121.0,1.0,24,10,0.0,81955,195390869749895,18,29.781639099121094,63.08405379825456,0.7689988718900844,16,213435.35898638685,340282346638528860000000000000000000000,1561097980,,,,2,,5,46.79038619995117,26.271638870239258,13.263009023442432,4.8356409757302465,13.263009023442432,1.5000000237487257,I,216492860489944
Raw,1715667387000,4724296000000,,,-1399697880704007685,0.0,3.7360256423990488,121.0,1.0,24,11,0.0,81955,195390915345872,10,37.452186584472656,613.0853845043571,0.15,16,130960.1958673305,340282346638528860000000000000000000000,1561097980,,,,2,,5,46.79038619995117,33.94218826293945,14.763008976808202,4.8356409757302465,14.763008976808202,1.5000000237487257,I,216492860489944
Raw,1715667387000,4724296000000,,,-1399697880704007685,0.0,3.7360256423990488,121.0,1.0,24,13,0.0,81955,195390871608863,15,32.08662414550781,-279.7777902685003,0.6656805676331006,16,-19745.436547837155,340282346638528860000000000000000000000,1561097980,,,,2,,5,46.79038619995117,28.57662582397461,29.16300884723109,4.8356409757302465,29.16300884723109,1.5000000237487257,I,216492860489944
Raw,1715667387000,4724296000000,,,-1399697880704007685,0.0,3.7360256423990488,121.0,1.0,24,23,0.0,81955,195390925288576,6,42.022979736328125,312.73509969535144,0.15,16,-170087.78193401458,340282346638528860000000000000000000000,1561097980,,,,2,,5,46.79038619995117,38.51298141479492,-3.236991258859799,4.8356409757302465,-3.236991258859799,1.5000000237487257,I,216492860489944
Raw,1715667387000,4724296000000,,,-1399697880704007685,0.0,3.7360256423990488,121.0,1.0,24,25,0.0,81955,195390913557715,14,32.760719299316406,601.0296016532825,0.6357178946097828,16,161656.85064321285,340282346638528860000000000000000000000,1561097980,,,,2,,5,46.79038619995117,29.25071907043457,18.663008949998556,4.8356409757302465,18.663008949998556,1.5000000237487257,I,216492860489944
Raw,1715667387000,4724296000000,,,-1399697880704007685,0.0,3.7360256423990488,121.0,1.0,24,27,0.0,81955,195390918923980,18,30.164052963256836,-465.47927542517414,0.7534523457356386,16,329199.66743616003,340282346638528860000000000000000000000,1561097980,,,,2,,5,46.79038619995117,26.654052734375,23.163009033768017,4.8356409757302465,23.163009033768017,1.5000000237487257,I,216492860489944
Raw,1715667387000,4724296000000,,,-1399697880704007685,0.0,3.7360256423990488,121.0,1.0,24,28,0.0,81955,195390927843539,6,42.541343688964844,-72.5657079967591,0.15,16,451789.4588444411,340282346638528860000000000000000000000,1561097980,,,,2,,5,46.79038619995117,39.03134536743164,23.26300897764048,4.8356409757302465,23.26300897764048,1.5000000237487257,I,216492860489944
Raw,1715667387000,4724296000000,,,-1399697880704007685,0.0,3.7360256423990488,121.0,1.0,24,37,0.0,81955,195390925103242,13,33.944969177246094,-236.04604498477795,0.5809427938340717,16,-130644.43986978274,340282346638528860000000000000000000000,1561097980,,,,2,,5,46.79038619995117,30.434968948364258,35.56300923146281,4.8356409757302465,35.56300923146281,1.5000000237487257,I,216492860489944
Raw,1715667387000,4724296000000,,,-1399697880704007685,0.0,3.7360256423990488,121.0,1.0,24,38,0.0,81955,195390869996812,11,35.41387176513672,-154.07207935963618,0.5157680505262954,16,-442239.6414496111,340282346638528860000000000000000000000,1561097980,,,,2,,5,46.79038619995117,31.903873443603516,16.76300904717569,4.8356409757302465,16.76300904717569,1.5000000237487257,I,216492860489944
Raw,1715667387000,4724296000000,,,-1399697880704007685,0.0,3.7360256423990488,121.0,1.0,24,43,0.0,81967,195390921689659,14,33.26723098754883,511.05011006286736,0.6108057490451411,16,-316457.4528499186,340282346638528860000000000000000000000,1561097980,,,,2,,5,46.79038619995117,29.757232666015625,22.063008855892114,4.8356409757302465,22.063008855892114,1.5000000237487257,I,216492860489944
Raw,1715667387000,4724296000000,,,-1399697880704007685,0.0,3.7360256423990488,121.0,1.0,24,23,0.0,81959,195390925288639,6,25.8574161529541,313.01958595994734,0.9707461789408804,16,-171300.1448489259,340282346638528860000000000000000000000,1176450050,,,,2,,5,26.25796127319336,21.847415924072266,28.60906536848153,1.6493694698813897,28.60906536848153,1.5000000237487257,Q,216492860489944
Raw,1715667387000,4724296000000,,,-1399697880704007685,0.0,3.7360256423990488,121.0,1.0,24,25,0.0,81959,195390913557740,6,26.069673538208008,601.2204634098102,0.9590911770214414,16,159723.08893523033,340282346638528860000000000000000000000,1176450050,,,,2,,5,26.25796127319336,22.059673309326172,36.40889159615457,1.6493694698813897,36.40889159615457,1.5000000237487257,Q,216492860489944
Raw,1715667387000,4724296000000,,,-1399697880704007685,0.0,3.7360256423990488,121.0,1.0,24,27,0.0,81959,195390918924022,6,27.35566520690918,-465.08930395764014,0.9022267950339629,16,325083.1262341329,340282346638528860000000000000000000000,1176450050,,,,2,,5,26.25796127319336,23.345664978027344,35.76860788179194,1.6493694698813897,35.76860788179194,1.5000000237487257,Q,216492860489944
Raw,1715667387000,4724296000000,,,-1399697880704007685,0.0,3.7360256423990488,121.0,1.0,24,28,0.0,81959,195390927843586,6,31.005218505859375,-72.62152653992933,0.7397149190361154,16,460479.5812932167,340282346638528860000000000000000000000,1176450050,,,,2,,5,26.25796127319336,26.99521827697754,36.23426905415704,1.6493694698813897,36.23426905415704,1.5000000237487257,Q,216492860489944
Raw,1715667387000,4724296000000,,,-1399697880704007685,0.0,3.7360256423990488,121.0,1.0,24,37,0.0,81959,195390925103284,32,14.717184066772461,-235.55368981784943,1.4716764786170788,16,-130392.07628097944,340282346638528860000000000000000000000,1176450050,,,,1,,5,26.25796127319336,10.707183837890625,33.90596319233153,1.6493694698813897,33.90596319233153,1.5000000237487257,Q,216492860489944
Raw,1715667387000,4724296000000,,,-1399697880704007685,0.0,3.7360256423990488,121.0,1.0,24,38,0.0,81959,195390869996843,8,17.232458114624023,-154.6355646133278,1.3666426019587163,16,-441968.16448635515,340282346638528860000000000000000000000,1176450050,,,,2,,5,26.25796127319336,13.222457885742188,31.868694370316028,1.6493694698813897,31.868694370316028,1.5000000237487257,Q,216492860489944
Raw,1715667387000,4724296000000,,,-1399697880704007685,0.0,3.7360256423990488,121.0,1.0,24,43,0.0,81959,195390921689598,6,30.062288284301758,510.77697325629356,0.7810104748243529,16,-311181.47538868384,340282346638528860000000000000000000000,1176450050,,,,2,,5,26.25796127319336,26.052288055419922,30.588126146311996,1.6493694698813897,30.588126146311996,1.5000000237487257,Q,216492860489944
Raw,1715667387000,4724296000000,,,-1399697880704007685,0.0,3.7360256423990488,121.0,1.0,24,2,0.0,85026,195404921174699,19,37.49012756347656,25.92119716291664,0.15,16,-31699.876383144485,340282346638528860000000000000000000000,1575420030,,,,2,,6,28.319761276245117,33.98012924194336,5.762558358982446,1.5000000237487257,5.762558358982446,1.5000000237487257,C,216492860489944
Raw,1715667387000,4724296000000,,,-1399697880704007685,0.0,3.7360256423990488,121.0,1.0,24,7,0.0,85026,195404907095700,45,27.26158905029297,262.8356056257504,0.8818452863314286,16,-339727.77229746233,340282346638528860000000000000000000000,1575420030,,,,2,,6,28.319761276245117,23.751588821411133,-1.222360817051661,1.5000000237487257,-1.222360817051661,1.5000000237487257,C,216492860489944
Raw,1715667387000,4724296000000,,,-1399697880704007685,0.0,3.7360256423990488,121.0,1.0,24,8,0.0,85026,195404907500640,61,25.162906646728516,460.25508240690124,299.7938205413577,16,-464033.82030081877,340282346638528860000000000000000000000,1575420030,,,,2,,6,28.319761276245117,21.65290641784668,5.995388945164998,1.5000000237487257,5.995388945164998,1.5000000237487257,C,216492860489944
Raw,1715667387000,4724296000000,,,-1399697880704007685,0.0,3.7360256423990488,121.0,1.0,24,11,0.0,85026,195404911434211,38,29.41693115234375,545.1964371092015,0.7849828117590056,16,-404740.75183699804,340282346638528860000000000000000000000,1575420030,,,,1,,6,28.319761276245117,25.906930923461914,16.705597897759322,1.5000000237487257,16.705597897759322,1.5000000237487257,C,216492860489944
Raw,1715667387000,4724296000000,,,-1399697880704007685,0.0,3.7360256423990488,121.0,1.0,24,25,0.0,85026,195404912575938,29,32.5672492980957,327.65691039788567,0.6428024524229725,16,103787.47242254378,340282346638528860000000000000000000000,1575420030,,,,2,,6,28.319761276245117,29.057249069213867,1.105945541823092,1.5000000237487257,1.105945541823092,1.5000000237487257,C,216492860489944
Raw,1715667387000,4724296000000,,,-1399697880704007685,0.0,3.7360256423990488,121.0,1.0,24,30,0.0,85026,195404915283005,31,31.865989685058594,-287.3811943704893,0.6748242516721108,16,32351.757367970757,340282346638528860000000000000000000000,1575420030,,,,2,,6,28.319761276245117,28.355989456176758,2.0372680853729936,1.5000000237487257,2.0372680853729936,1.5000000237487257,C,216492860489944
Raw,1715667387000,4724296000000,,,-1399697880704007685,0.0,3.7360256423990488,121.0,1.0,24,34,0.0,85026,195404918837433,10,44.91035461425781,-385.1417789499751,0.15,16,421844.2882628843,340282346638528860000000000000000000000,1575420030,,,,2,,6,28.319761276245117,41.40035629272461,-2.153683360601563,1.5000000237487257,-2.153683360601563,1.5000000237487257,C,216492860489944
Raw,1715667387000,4724296000000,,,-1399697880704007685,0.0,3.7360256423990488,121.0,1.0,24,36,0.0,85026,195404919729526,17,39.334835052490234,155.92693184974883,0.15,16,229703.3379704504,340282346638528860000000000000000000000,1575420030,,,,2,,6,28.319761276245117,35.82483673095703,-2.3865141456038086,1.5000000237487257,-2.3865141456038086,1.5000000237487257,C,216492860489944
Raw,1715667387000,4724296000000,,,-1399697880704007685,0.0,3.7360256423990488,121.0,1.0,24,2,0.0,84003,195404921174632,7,23.41628074645996,25.87000531321938,1.0797812827411826,16,-31906.810946722006,340282346638528860000000000000000000000,1176450050,,,,2,,6,26.25796127319336,19.406280517578125,9.826058726518433,1.6493694698813897,9.826058726518433,1.5000000237487257,Q,216492860489944
Raw,1715667387000,4724296000000,,,-1399697880704007685,0.0,3.7360256423990488,121.0,1.0,24,7,0.0,84003,195404907095617,20,16.41721534729004,262.25593120521046,1.3919890325748323,16,-338593.2356665892,340282346638528860000000000000000000000,1176450050,,,,2,,6,26.25796127319336,12.407215118408203,-2.6999971335922983,1.6493694698813897,-2.6999971335922983,1.5000000237487257,Q,216492860489944
Raw,1715667387000,4724296000000,,,-1399697880704007685,0.0,3.7360256423990488,121.0,1.0,24,8,0.0,84003,195404907500568,35,15.500432968139648,460.47460750936466,299.7938205413577,16,-455940.55098592176,340282346638528860000000000000000000000,1176450050,,,,2,,6,26.25796127319336,11.490432739257812,10.243593603743948,1.6493694698813897,10.243593603743948,1.5000000237487257,Q,216492860489944
Raw,1715667387000,4724296000000,,,-1399697880704007685,0.0,3.7360256423990488,121.0,1.0,24,11,0.0,84003,195404911434133,6,23.71819305419922,545.3562838302935,1.0644526313527507,16,-388762.13512168446,340282346638528860000000000000000000000,1176450050,,,,2,,6,26.25796127319336,19.708192825317383,29.45021227113556,1.6493694698813897,29.45021227113556,1.5000000237487257,Q,216492860489944
Raw,1715667387000,4724296000000,,,-1399697880704007685,0.0,3.7360256423990488,121.0,1.0,24,25,0.0,84003,195404912575850,6,28.522563934326172,327.6213623957324,0.8486107640492189,16,101782.0651038595,340282346638528860000000000000000000000,1176450050,,,,2,,6,26.25796127319336,24.512563705444336,1.4753546209582513,1.6493694698813897,1.4753546209582513,1.5000000237487257,Q,216492860489944
Raw,1715667387000,4724296000000,,,-1399697880704007685,0.0,3.7360256423990488,121.0,1.0,24,30,0.0,84003,195404915282916,8,16.674158096313477,-287.03835894032636,1.3819070159046785,16,27829.854062138198,340282346638528860000000000000000000000,1176450050,,,,2,,6,26.25796127319336,12.66415786743164,3.145495521598166,1.6493694698813897,3.145495521598166,1.5000000237487257,Q,216492860489944
Raw,1715667387000,4724296000000,,,-1399697880704007685,0.0,3.7360256423990488,121.0,1.0,24,34,0.0,84003,195404918837351,6,26.172739028930664,-384.97586555162206,0.9554060114099125,16,417118.29204597767,340282346638528860000000000000000000000,1176450050,,,,2,,6,26.25796127319336,22.162738800048828,-4.370138233051907,1.6493694698813897,-4.370138233051907,1.5000000237487257,Q,216492860489944
Raw,1715667387000,4724296000000,,,-1399697880704007685,0.0,3.7360256423990488,121.0,1.0,24,36,0.0,84003,195404919729457,6,21.936599731445312,155.71316668243776,1.1460608102084917,16,228776.87510644033,340282346638528860000000000000000000000,1176450050,,,,2,,6,26.25796127319336,17.926599502563477,-4.78767311027742,1.6493694698813897,-4.78767311027742,1.5000000237487257,Q,216492860489944
Agc,1715667387000,4724296000000,,,-1399697880704007685,0.0,3.7360256423990488,121.0,1.0,24,32.88554000854492,1575420000,1
Agc,1715667387000,4724296000000,,,-1399697880704007685,0.0,3.7360256423990488,121.0,1.0,24,28.30018424987793,1176450000,1
Agc,1715667387000,4724296000000,,,-1399697880704007685,0.0,3.7360256423990488,121.0,1.0,24,43.83030319213867,1602000000,3
Agc,1715667387000,4724296000000,,,-1399697880704007685,0.0,3.7360256423990488,121.0,1.0,24,32.88554000854492,1575420000,6
Agc,1715667387000,4724296000000,,,-1399697880704007685,0.0,3.7360256423990488,121.0,1.0,24,28.30018424987793,1176450000,6
Agc,1715667387000,4724296000000,,,-1399697880704007685,0.0,3.7360256423990488,121.0,1.0,24,47.554473876953125,1561096000,5
Agc,1715667387000,4724296000000,,,-1399697880704007685,0.0,3.7360256423990488,121.0,1.0,24,32.88554000854492,1575420000,5
Agc,1715667387000,4724296000000,,,-1399697880704007685,0.0,3.7360256423990488,121.0,1.0,24,28.30018424987793,1176450000,5
Status,1715667387000,47,0,5,28,1561097980,43.38,249.0,75.0,1,1,1,39.869396
Status,1715667387000,47,1,5,28,1176450050,32.05,249.0,75.0,1,1,1,28.041931
Status,1715667387000,47,2,6,2,1575420030,37.57,44.0,66.0,1,1,1,34.05958
Status,1715667387000,47,3,6,2,1176450050,25.59,44.0,66.0,1,1,1,21.578089
Status,1715667387000,47,4,1,12,1575420030,40.56,40.0,65.0,1,1,1,37.05327
Status,1715667387000,47,5,3,13,1600875010,29.77,0.0,65.0,1,1,1,26.263117
Status,1715667387000,47,6,5,23,1561097980,42.36,137.0,61.0,1,1,1,38.84991
Status,1715667387000,47,7,5,37,1561097980,35.54,316.0,61.0,1,1,1,32.02955
Status,1715667387000,47,8,5,23,1176450050,27.28,137.0,61.0,1,1,1,23.269953
Status,1715667387000,47,9,5,37,1176450050,16.51,316.0,61.0,0,1,1,12.495756
Status,1715667387000,47,10,6,36,1575420030,39.91,68.0,58.0,1,1,1,36.403023
Status,1715667387000,47,11,6,36,1176450050,23.85,68.0,58.0,1,1,1,19.837494
Status,1715667387000,47,12,1,25,1575420030,40.42,334.0,56.0,1,1,1,36.91388
Status,1715667387000,47,13,1,25,1176450050,34.53,334.0,56.0,1,1,1,30.524212
Status,1715667387000,47,14,3,12,1601437440,44.82,113.0,53.0,1,1,1,41.31027
Status,1715667387000,47,15,6,34,1575420030,44.88,178.0,52.0,1,1,1,41.370647
Status,1715667387000,47,16,6,34,1176450050,26.17,178.0,52.0,1,1,1,22.157179
Status,1715667387000,47,17,1,11,1575420030,46.15,61.0,48.0,1,1,1,42.641098
Status,1715667387000,47,18,1,11,1176450050,28.30,61.0,48.0,1,1,1,24.28935
Status,1715667387000,47,19,1,29,1575420030,45.24,266.0,43.0,1,1,1,41.728573
Status,1715667387000,47,20,5,43,1561097980,34.51,42.0,38.0,1,1,1,30.996178
Status,1715667387000,47,21,5,43,1176450050,30.04,42.0,38.0,1,1,1,26.02626
Status,1715667387000,47,22,6,30,1575420030,31.84,316.0,37.0,1,1,1,28.333601
Status,1715667387000,47,23,6,30,1176450050,19.53,316.0,37.0,0,1,1,15.52378
Status,1715667387000,47,24,1,24,1575420030,41.21,178.0,36.0,1,1,1,37.69822
Status,1715667387000,47,25,1,24,1176450050,32.66,178.0,36.0,1,1,1,28.650917
Status,1715667387000,47,26,5,13,1561097980,33.45,97.0,32.0,1,1,1,29.94085
Status,1715667387000,47,27,5,8,1561097980,29.29,83.0,30.0,1,1,1,25.782621
Status,1715667387000,47,28,5,27,1561097980,31.22,230.0,27.0,1,1,1,27.70505
Status,1715667387000,47,29,5,27,1176450050,29.31,230.0,27.0,1,1,1,25.295261
Status,1715667387000,47,30,5,38,1561097980,35.49,70.0,26.0,1,1,1,31.979351
Status,1715667387000,47,31,5,38,1176450050,19.32,70.0,26.0,0,1,1,15.308233
Status,1715667387000,47,32,6,25,1575420030,34.87,101.0,26.0,1,1,1,31.361282
Status,1715667387000,47,33,6,25,1176450050,28.72,101.0,26.0,1,1,1,24.714724
Status,1715667387000,47,34,5,10,1561097980,30.08,72.0,25.0,1,1,1,26.566978
Status,1715667387000,47,35,1,20,1575420030,39.82,109.0,22.0,1,1,1,36.313885
Status,1715667387000,47,36,5,11,1561097980,39.12,42.0,16.0,1,1,1,35.60768
Status,1715667387000,47,37,1,6,1575420030,36.72,38.0,14.0,1,1,1,33.207935
Status,1715667387000,47,38,1,6,1176450050,32.09,38.0,14.0,1,1,1,28.078123
Status,1715667387000,47,39,6,11,1575420030,31.45,37.0,14.0,1,1,1,27.944553
Status,1715667387000,47,40,6,11,1176450050,25.66,37.0,14.0,1,1,1,21.65384
Status,1715667387000,47,41,6,8,1575420030,28.78,234.0,12.0,1,1,1,25.265491
Status,1715667387000,47,42,6,8,1176450050,18.25,234.0,12.0,0,1,1,14.239949
Status,1715667387000,47,43,5,25,1561097980,33.77,138.0,10.0,1,1,1,30.257656
Status,1715667387000,47,44,5,25,1176450050,26.98,138.0,10.0,1,1,1,22.96763
Status,1715667387000,47,45,6,7,1575420030,28.33,284.0,10.0,0,1,1,24.81565
Status,1715667387000,47,46,6,7,1176450050,18.04,284.0,10.0,0,1,1,14.033798
Status,1715667387000,47,0,5,28,1561097980,43.38,249.0,75.0,1,1,1,39.869396
Status,1715667387000,47,1,5,28,1176450050,32.05,249.0,75.0,1,1,1,28.041931
Status,1715667387000,47,2,6,2,1575420030,37.57,44.0,66.0,1,1,1,34.05958
Status,1715667387000,47,3,6,2,1176450050,25.59,44.0,66.0,1,1,1,21.578089
Status,1715667387000,47,4,1,12,1575420030,40.56,40.0,65.0,1,1,1,37.05327
Status,1715667387000,47,5,3,13,1600875010,29.77,0.0,65.0,1,1,1,26.263117
Status,1715667387000,47,6,5,23,1561097980,42.36,137.0,61.0,1,1,1,38.84991
Status,1715667387000,47,7,5,37,1561097980,35.54,316.0,61.0,1,1,1,32.02955
Status,1715667387000,47,8,5,23,1176450050,27.28,137.0,61.0,1,1,1,23.269953
Status,1715667387000,47,9,5,37,1176450050,16.51,316.0,61.0,0,1,1,12.495756
Status,1715667387000,47,10,6,36,1575420030,39.91,68.0,58.0,1,1,1,36.403023
Status,1715667387000,47,11,6,36,1176450050,23.85,68.0,58.0,1,1,1,19.837494
Status,1715667387000,47,12,1,25,1575420030,40.42,334.0,56.0,1,1,1,36.91388
Status,1715667387000,47,13,1,25,1176450050,34.53,334.0,56.0,1,1,1,30.524212
Status,1715667387000,47,14,3,12,1601437440,44.82,113.0,53.0,1,1,1,41.31027
Status,1715667387000,47,15,6,34,1575420030,44.88,178.0,52.0,1,1,1,41.370647
Status,1715667387000,47,16,6,34,1176450050,26.17,178.0,52.0,1,1,1,22.157179
Status,1715667387000,47,17,1,11,1575420030,46.15,61.0,48.0,1,1,1,42.641098
Status,1715667387000,47,18,1,11,1176450050,28.30,61.0,48.0,1,1,1,24.28935
Status,1715667387000,47,19,1,29,1575420030,45.24,266.0,43.0,1,1,1,41.728573
Status,1715667387000,47,20,5,43,1561097980,34.51,42.0,38.0,1,1,1,30.996178
Status,1715667387000,47,21,5,43,1176450050,30.04,42.0,38.0,1,1,1,26.02626
Status,1715667387000,47,22,6,30,1575420030,31.84,316.0,37.0,1,1,1,28.333601
Status,1715667387000,47,23,6,30,1176450050,19.53,316.0,37.0,0,1,1,15.52378
Status,1715667387000,47,24,1,24,1575420030,41.21,178.0,36.0,1,1,1,37.69822
Status,1715667387000,47,25,1,24,1176450050,32.66,178.0,36.0,1,1,1,28.650917
Status,1715667387000,47,26,5,13,1561097980,33.45,97.0,32.0,1,1,1,29.94085
Status,1715667387000,47,27,5,8,1561097980,29.29,83.0,30.0,1,1,1,25.782621
Status,1715667387000,47,28,5,27,1561097980,31.22,230.0,27.0,1,1,1,27.70505
Status,1715667387000,47,29,5,27,1176450050,29.31,230.0,27.0,1,1,1,25.295261
Status,1715667387000,47,30,5,38,1561097980,35.49,70.0,26.0,1,1,1,31.979351
Status,1715667387000,47,31,5,38,1176450050,19.32,70.0,26.0,0,1,1,15.308233
Status,1715667387000,47,32,6,25,1575420030,34.87,101.0,26.0,1,1,1,31.361282
Status,1715667387000,47,33,6,25,1176450050,28.72,101.0,26.0,1,1,1,24.714724
Status,1715667387000,47,34,5,10,1561097980,30.08,72.0,25.0,1,1,1,26.566978
Status,1715667387000,47,35,1,20,1575420030,39.82,109.0,22.0,1,1,1,36.313885
Status,1715667387000,47,36,5,11,1561097980,39.12,42.0,16.0,1,1,1,35.60768
Status,1715667387000,47,37,1,6,1575420030,36.72,38.0,14.0,1,1,1,33.207935
