# 
# Header Description:
# 
# Version: v3.0.6.4 Platform: 14 Manufacturer: Google Model: Pixel 8 Pro
# 
# Raw,utcTimeMillis,TimeNanos,LeapSecond,TimeUncertaintyNanos,FullBiasNanos,BiasNanos,BiasUncertaintyNanos,DriftNanosPerSecond,DriftUncertaintyNanosPerSecond,HardwareClockDiscontinuityCount,Svid,TimeOffsetNanos,State,ReceivedSvTimeNanos,ReceivedSvTimeUncertaintyNanos,Cn0DbHz,PseudorangeRateMetersPerSecond,PseudorangeRateUncertaintyMetersPerSecond,AccumulatedDeltaRangeState,AccumulatedDeltaRangeMeters,AccumulatedDeltaRangeUncertaintyMeters,CarrierFrequencyHz,CarrierCycles,CarrierPhase,CarrierPhaseUncertainty,MultipathIndicator,SnrInDb,ConstellationType,AgcDb,BasebandCn0DbHz,FullInterSignalBiasNanos,FullInterSignalBiasUncertaintyNanos,SatelliteInterSignalBiasNanos,SatelliteInterSignalBiasUncertaintyNanos,CodeType,ChipsetElapsedRealtimeNanos
# 
# UncalAccel,utcTimeMillis,elapsedRealtimeNanos,UncalAccelXMps2,UncalAccelYMps2,UncalAccelZMps2,BiasXMps2,BiasYMps2,BiasZMps2
# 
# Accel,utcTimeMillis,elapsedRealtimeNanos,AccelXMps2,AccelYMps2,AccelZMps2
# 
# UncalGyro,utcTimeMillis,elapsedRealtimeNanos,UncalGyroXRadPerSec,UncalGyroYRadPerSec,UncalGyroZRadPerSec,DriftXRadPerSec,DriftYRadPerSec,DriftZRadPerSec
# 
# Gyro,utcTimeMillis,elapsedRealtimeNanos,GyroXRadPerSec,GyroYRadPerSec,GyroZRadPerSec
# 
# UncalMag,utcTimeMillis,elapsedRealtimeNanos,UncalMagXMicroT,UncalMagYMicroT,UncalMagZMicroT,BiasXMicroT,BiasYMicroT,BiasZMicroT
# 
# Mag,utcTimeMillis,elapsedRealtimeNanos,MagXMicroT,MagYMicroT,MagZMicroT
# 
# OrientationDeg,utcTimeMillis,elapsedRealtimeNanos,yawDeg,rollDeg,pitchDeg
# 
# Fix,Provider,LatitudeDegrees,LongitudeDegrees,AltitudeMeters,SpeedMps,AccuracyMeters,BearingDegrees,UnixTimeMillis,SpeedAccuracyMps,BearingAccuracyDegrees,elapsedRealtimeNanos,VerticalAccuracyMeters,MockLocation,NumberOfUsedSignals,VerticalSpeedAccuracyMps,SolutionType
# 
# Nav,Svid,Type,Status,MessageId,Sub-messageId,Data(Bytes)
# 
# Status,UnixTimeMillis,SignalCount,SignalIndex,ConstellationType,Svid,CarrierFrequencyHz,Cn0DbHz,AzimuthDegrees,ElevationDegrees,UsedInFix,HasAlmanacData,HasEphemerisData,BasebandCn0DbHz
# 
# Agc,utcTimeMillis,TimeNanos,LeapSecond,TimeUncertaintyNanos,FullBiasNanos,BiasNanos,BiasUncertaintyNanos,DriftNanosPerSecond,DriftUncertaintyNanosPerSecond,HardwareClockDiscontinuityCount,AgcDb,CarrierFrequencyHz,ConstellationType
# 
Fix,FLP,32.1026474000,35.2097171000,703.0000610351562,0.24759309,9.358,107.02534,1715780169740,0.19548379,45.0,38780029335512,1.5802242,0,,,
Status,,48,0,5,32,1561097980,42.60,222.0,76.0,1,1,1,39.085182
Status,,48,1,3,5,1602562560,45.58,196.0,75.0,1,1,1,42.069
Status,,48,2,1,27,1575420030,45.26,214.0,72.0,1,1,1,41.745895
Status,,48,3,1,27,1176450050,26.86,214.0,72.0,0,1,1,22.845936
Status,,48,4,5,27,1561097980,45.62,112.0,69.0,1,1,1,42.106148
Status,,48,5,5,27,1176450050,13.94,112.0,69.0,0,1,1,9.926712
Status,,48,6,7,9,1176450050,27.23,125.0,69.0,1,1,1,23.718689
Status,,48,7,1,32,1575420030,47.11,118.0,61.0,1,1,1,43.600956
Status,,48,8,1,32,1176450050,30.03,118.0,61.0,1,1,1,26.023499
Status,,48,9,1,8,1575420030,41.27,299.0,54.0,1,1,1,37.76323
Status,,48,10,1,10,1575420030,47.28,27.0,54.0,1,1,1,43.774906
Status,,48,11,1,8,1176450050,27.50,299.0,54.0,1,1,1,23.492579
Status,,48,12,1,10,1176450050,25.05,27.0,54.0,0,1,1,21.03985
Status,,48,13,5,30,1561097980,46.98,321.0,54.0,1,1,1,43.473026
Status,,48,14,5,30,1176450050,19.53,321.0,54.0,0,1,1,15.515142
Status,,48,15,6,5,1575420030,42.07,152.0,54.0,1,1,1,38.557625
Status,,48,16,6,36,1575420030,46.79,61.0,54.0,1,1,1,43.27752
Status,,48,17,6,5,1176450050,29.44,152.0,54.0,1,1,1,25.426561
Status,,48,18,6,36,1176450050,20.90,61.0,54.0,0,1,1,16.893053
Status,,48,19,7,6,1176450050,25.76,185.0,52.0,1,1,1,22.253471
Status,,48,20,3,19,1603687550,33.86,90.0,50.0,1,1,1,30.354382
Status,,48,21,3,4,1605374980,45.07,32.0,49.0,1,1,1,41.558594
Status,,48,22,6,34,1575420030,40.24,327.0,48.0,1,1,1,36.73433
Status,,48,23,6,34,1176450050,27.18,327.0,48.0,1,1,1,23.171402
Status,,48,24,5,41,1561097980,46.42,41.0,45.0,1,1,1,42.913437
Status,,48,25,5,41,1176450050,14.76,41.0,45.0,0,1,1,10.746362
Status,,48,26,3,20,1603124990,29.96,342.0,43.0,0,1,1,26.445501
Status,,48,27,6,9,1575420030,42.06,62.0,43.0,1,1,1,38.54671
Status,,48,28,6,9,1176450050,22.08,62.0,43.0,0,1,1,18.066605
Status,,48,29,7,3,1176450050,23.30,112.0,29.0,0,1,1,19.791286
Status,,48,30,1,21,1575420030,36.69,309.0,27.0,1,1,1,33.175014
Status,,48,31,1,23,1575420030,30.57,48.0,22.0,0,1,1,27.062346
Status,,48,32,1,23,1176450050,17.52,48.0,22.0,0,1,1,13.514902
Status,,48,33,5,28,1561097980,33.83,128.0,22.0,1,1,1,30.31925
Status,,48,34,5,28,1176450050,24.11,128.0,22.0,0,1,1,20.103289
Status,,48,35,5,13,1561097980,32.37,55.0,20.0,0,1,1,28.85518
Status,,48,36,5,39,1561097980,42.90,79.0,20.0,1,1,1,39.39355
Status,,48,37,5,39,1176450050,24.40,79.0,20.0,0,1,1,20.39125
Status,,48,38,6,30,1575420030,35.67,273.0,20.0,1,1,1,32.15649
Status,,48,39,6,30,1176450050,24.67,273.0,20.0,0,1,1,20.660082
Status,,48,40,5,6,1561097980,27.05,93.0,19.0,1,1,1,23.544685
Status,,48,41,5,20,1561097980,39.14,221.0,19.0,1,1,1,35.634827
Status,,48,42,5,20,1176450050,24.80,221.0,19.0,0,1,1,20.786623
Status,,48,43,5,16,1561097980,28.82,86.0,18.0,1,1,1,25.314966
Status,,48,44,5,9,1561097980,25.51,105.0,17.0,1,1,1,22.00425
Status,,48,45,1,16,1575420030,39.69,215.0,16.0,1,1,1,36.181366
Status,,48,46,6,2,1575420030,37.56,220.0,16.0,1,1,1,34.05191
Status,,48,47,6,2,1176450050,24.54,220.0,16.0,0,1,1,20.528456
Status,,48,0,5,32,1561097980,42.60,222.0,76.0,1,1,1,39.085182
Status,,48,1,3,5,1602562560,45.58,196.0,75.0,1,1,1,42.069
Status,,48,2,1,27,1575420030,45.26,214.0,72.0,1,1,1,41.745895
Status,,48,3,1,27,1176450050,26.86,214.0,72.0,0,1,1,22.845936
Status,,48,4,5,27,1561097980,45.62,112.0,69.0,1,1,1,42.106148
Status,,48,5,5,27,1176450050,13.94,112.0,69.0,0,1,1,9.926712
Status,,48,6,7,9,1176450050,27.23,125.0,69.0,1,1,1,23.718689
Status,,48,7,1,32,1575420030,47.11,118.0,61.0,1,1,1,43.600956
Status,,48,8,1,32,1176450050,30.03,118.0,61.0,1,1,1,26.023499
Status,,48,9,1,8,1575420030,41.27,299.0,54.0,1,1,1,37.76323
Status,,48,10,1,10,1575420030,47.28,27.0,54.0,1,1,1,43.774906
Status,,48,11,1,8,1176450050,27.50,299.0,54.0,1,1,1,23.492579
Status,,48,12,1,10,1176450050,25.05,27.0,54.0,0,1,1,21.03985
Status,,48,13,5,30,1561097980,46.98,321.0,54.0,1,1,1,43.473026
Status,,48,14,5,30,1176450050,19.53,321.0,54.0,0,1,1,15.515142
Status,,48,15,6,5,1575420030,42.07,152.0,54.0,1,1,1,38.557625
Status,,48,16,6,36,1575420030,46.79,61.0,54.0,1,1,1,43.27752
Status,,48,17,6,5,1176450050,29.44,152.0,54.0,1,1,1,25.426561
Status,,48,18,6,36,1176450050,20.90,61.0,54.0,0,1,1,16.893053
Status,,48,19,7,6,1176450050,25.76,185.0,52.0,1,1,1,22.253471
Status,,48,20,3,19,1603687550,33.86,90.0,50.0,1,1,1,30.354382
Status,,48,21,3,4,1605374980,45.07,32.0,49.0,1,1,1,41.558594
Status,,48,22,6,34,1575420030,40.24,327.0,48.0,1,1,1,36.73433
Status,,48,23,6,34,1176450050,27.18,327.0,48.0,1,1,1,23.171402
Status,,48,24,5,41,1561097980,46.42,41.0,45.0,1,1,1,42.913437
Status,,48,25,5,41,1176450050,14.76,41.0,45.0,0,1,1,10.746362
Status,,48,26,3,20,1603124990,29.96,342.0,43.0,0,1,1,26.445501
Status,,48,27,6,9,1575420030,42.06,62.0,43.0,1,1,1,38.54671
Status,,48,28,6,9,1176450050,22.08,62.0,43.0,0,1,1,18.066605
Status,,48,29,7,3,1176450050,23.30,112.0,29.0,0,1,1,19.791286
Status,,48,30,1,21,1575420030,36.69,309.0,27.0,1,1,1,33.175014
Status,,48,31,1,23,1575420030,30.57,48.0,22.0,0,1,1,27.062346
Status,,48,32,1,23,1176450050,17.52,48.0,22.0,0,1,1,13.514902
Status,,48,33,5,28,1561097980,33.83,128.0,22.0,1,1,1,30.31925
Status,,48,34,5,28,1176450050,24.11,128.0,22.0,0,1,1,20.103289
Status,,48,35,5,13,1561097980,32.37,55.0,20.0,0,1,1,28.85518
Status,,48,36,5,39,1561097980,42.90,79.0,20.0,1,1,1,39.39355
Status,,48,37,5,39,1176450050,24.40,79.0,20.0,0,1,1,20.39125
Status,,48,38,6,30,1575420030,35.67,273.0,20.0,1,1,1,32.15649
Status,,48,39,6,30,1176450050,24.67,273.0,20.0,0,1,1,20.660082
Status,,48,40,5,6,1561097980,27.05,93.0,19.0,1,1,1,23.544685
Status,,48,41,5,20,1561097980,39.14,221.0,19.0,1,1,1,35.634827
Status,,48,42,5,20,1176450050,24.80,221.0,19.0,0,1,1,20.786623
Status,,48,43,5,16,1561097980,28.82,86.0,18.0,1,1,1,25.314966
Status,,48,44,5,9,1561097980,25.51,105.0,17.0,1,1,1,22.00425
Status,,48,45,1,16,1575420030,39.69,215.0,16.0,1,1,1,36.181366
Status,,48,46,6,2,1575420030,37.56,220.0,16.0,1,1,1,34.05191
Status,,48,47,6,2,1176450050,24.54,220.0,16.0,0,1,1,20.528456
Fix,GPS,32.1025991050,35.2097020637,710.5013826087566,0.0,3.1778405,,1715780170000,0.12556534,,38780668828910,4.7897563,0,,,
Raw,1715780170000,14046000000,,,-1399815373954482328,0.0,13.561130273979348,,,7,8,0.0,16419,308187929870034,15,40.63929748535156,-192.96461001273906,0.15,17,-2213.863576829472,0.09641128374551212,1575420030,,,,2,,1,33.575069427490234,37.12929916381836,-5.704350952030072,1.0,-5.704350952030072,1.0,C,38780719069267
Raw,1715780170000,14046000000,,,-1399815373954482328,0.0,13.561130273979348,,,7,10,0.0,16431,308187929264708,11,47.335506439208984,355.75540778161667,0.15,25,4076.7865475808344,0.0006165512022562325,1575420030,,,,2,,1,33.575069427490234,43.82550811767578,-3.143213708743226,1.0,-3.143213708743226,1.0,C,38780719069267
Raw,1715780170000,14046000000,,,-1399815373954482328,0.0,13.561130273979348,,,7,16,0.0,16431,308187918582703,23,35.591941833496094,589.1081036809078,0.509304831871668,25,7100.7877040622825,0.0021315342746675014,1575420030,,,,1,,1,33.575069427490234,32.08194351196289,10.244548177868609,1.0,10.244548177868609,1.0,C,38780719069267
Raw,1715780170000,14046000000,,,-1399815373954482328,0.0,13.561130273979348,,,7,21,0.0,16419,308187923366083,21,36.77354049682617,-347.9121143093919,0.15,17,-3981.6291408263396,0.0971201156853584,1575420030,,,,2,,1,33.575069427490234,33.26354217529297,10.244548177868609,1.0,10.244548177868609,1.0,C,38780719069267
Raw,1715780170000,14046000000,,,-1399815373954482328,0.0,13.561130273979348,,,7,23,0.0,16419,308187922232407,60,23.820051193237305,565.5981274188428,1.035732370377366,16,6494.140297516926,340282346638528860000000000000000000000,1575420030,,,,2,,1,33.575069427490234,20.31005096435547,8.178176129039379,1.0,8.178176129039379,1.0,C,38780719069267
Raw,1715780170000,14046000000,,,-1399815373954482328,0.0,13.561130273979348,,,7,27,0.0,16431,308187931971467,13,45.3403434753418,259.1518203537107,0.15,25,3114.846370686188,0.000775759806856513,1575420030,,,,2,,1,33.575069427490234,41.830345153808594,-2.7648638073768854,1.0,-2.7648638073768854,1.0,C,38780719069267
Raw,1715780170000,14046000000,,,-1399815373954482328,0.0,13.561130273979348,,,7,32,0.0,16431,308187929849388,13,42.16554641723633,-114.88348292733377,0.15,25,-1757.4717230240976,0.0010606895666569471,1575420030,,,,2,,1,33.575069427490234,38.655548095703125,-1.222360875687938,1.0,-1.222360875687938,1.0,C,38780719069267
Raw,1715780170000,14046000000,,,-1399815373954482328,0.0,13.561130273979348,,,7,8,0.0,81921,308187929869965,6,24.24577522277832,-193.4040521659159,1.0404463335778793,16,-2214.642976829512,340282346638528860000000000000000000000,1176450050,,,,2,,1,26.046100616455078,20.235774993896484,1.1931006807257558,11.00692285594456,1.1931006807257558,1.0,Q,38780719069267
Raw,1715780170000,14046000000,,,-1399815373954482328,0.0,13.561130273979348,,,7,10,0.0,81921,308187929264642,35,17.033353805541992,356.2319486887186,1.3646719436717998,16,4071.5211652887047,340282346638528860000000000000000000000,1176450050,,,,2,,1,26.046100616455078,13.023353576660156,8.55655704627799,11.00692285594456,8.55655704627799,1.0,Q,38780719069267
Raw,1715780170000,14046000000,,,-1399815373954482328,0.0,13.561130273979348,,,7,23,0.0,81921,308187922232382,25,14.40224838256836,566.0261689903127,1.4817248122344973,16,6499.345751522744,340282346638528860000000000000000000000,1176450050,,,,2,,1,26.046100616455078,10.392248153686523,7.8872273651735085,11.00692285594456,7.8872273651735085,1.0,Q,38780719069267
Raw,1715780170000,14046000000,,,-1399815373954482328,0.0,13.561130273979348,,,7,27,0.0,81921,308187931971396,6,19.694557189941406,259.6781557297925,1.245487457095873,16,3872.319988071179,340282346638528860000000000000000000000,1176450050,,,,2,,1,26.046100616455078,15.684556007385254,3.900008149650271,11.00692285594456,3.900008149650271,1.0,Q,38780719069267
Raw,1715780170000,14046000000,,,-1399815373954482328,0.0,13.561130273979348,,,7,32,0.0,81921,308187929849322,6,27.02683448791504,-115.04926851647485,0.9153816247422992,25,4590.780054660041,0.008105327375233173,1176450050,,,,2,,1,26.046100616455078,23.016834259033203,8.381787377706875,11.00692285594456,8.381787377706875,1.0,Q,38780719069267
Raw,1715780170000,14046000000,,,-1399815373954482328,0.0,13.561130273979348,,,7,5,0.0,32867,59769936210262,33,45.602657318115234,-176.72483071646775,0.15,17,-1720.1500630663722,0.09427527441243494,1602562560,,,,2,,3,49.213958740234375,42.09265899658203,25.69868143608009,2.0000000474974513,25.69868143608009,2.0000000474974513,C,38780719069267
Raw,1715780170000,14046000000,,,-1399815373954482328,0.0,13.561130273979348,,,7,20,0.0,32803,59769931180482,87,27.771114349365234,-441.64871957705554,0.8596671262586781,16,-3046.7675479672653,340282346638528860000000000000000000000,1603124990,,,,2,,3,49.213958740234375,24.2611141204834,28.550858502652677,2.0000000474974513,28.550858502652677,2.0000000474974513,C,38780719069267
Raw,1715780170000,14046000000,,,-1399815373954482328,0.0,13.561130273979348,,,7,19,0.0,32867,59769932436669,110,24.9151611328125,237.8336016644863,0.9883221423062851,16,2582.223469641589,340282346638528860000000000000000000000,1603687550,,,,2,,3,49.213958740234375,21.405160903930664,27.124768975267912,2.0000000474974513,27.124768975267912,2.0000000474974513,C,38780719069267
Raw,1715780170000,14046000000,,,-1399815373954482328,0.0,13.561130273979348,,,7,4,0.0,32867,59769932609555,33,42.65531539916992,555.3349454510419,0.15,17,6624.256366810831,0.09435530259257982,1605374980,,,,2,,3,49.213958740234375,39.14531707763672,17.14215540567437,2.0000000474974513,17.14215540567437,2.0000000474974513,C,38780719069267
Raw,1715780170000,14046000000,,,-1399815373954482328,0.0,13.561130273979348,,,7,6,0.0,81955,308173867999181,62,25.528852462768555,-283.5107394840742,0.9599269294465271,16,-1115.2537311783888,340282346638528860000000000000000000000,1561097980,,,,2,,5,48.66847610473633,22.01885223388672,11.814473657967843,4.8356409757302465,11.814473657967843,1.5000000237487257,I,38780719069267
Raw,1715780170000,14046000000,,,-1399815373954482328,0.0,13.561130273979348,,,7,9,0.0,81955,308173865526971,102,21.033193588256836,-292.959947183969,1.1616468773378879,16,-1152.6811810828506,340282346638528860000000000000000000000,1561097980,,,,0,,5,48.66847610473633,17.523193359375,13.414473555206078,4.8356409757302465,13.414473555206078,1.5000000237487257,I,38780719069267
Raw,1715780170000,14046000000,,,-1399815373954482328,0.0,13.561130273979348,,,7,13,0.0,81955,308173869032685,54,26.215177536010742,108.86334526065542,0.9997954155024678,16,430.8115195921728,340282346638528860000000000000000000000,1561097980,,,,1,,5,48.66847610473633,22.705177307128906,30.41447355687064,4.8356409757302465,30.41447355687064,1.5000000237487257,I,38780719069267
Raw,1715780170000,14046000000,,,-1399815373954482328,0.0,13.561130273979348,,,7,16,0.0,81955,308173866541960,25,25.96128273010254,-254.07256298180107,0.9402189486641057,16,-1000.5606867604318,340282346638528860000000000000000000000,1561097980,,,,2,,5,48.66847610473633,22.451282501220703,23.51447365209629,4.8356409757302465,23.51447365209629,1.5000000237487257,I,38780719069267
Raw,1715780170000,14046000000,,,-1399815373954482328,0.0,13.561130273979348,,,7,20,0.0,81955,308173916042716,8,39.40896224975586,-534.2310883721177,0.15,17,-2105.7088656327983,0.0974899677377284,1561097980,,,,1,,5,48.66847610473633,35.898963928222656,8.214473292722731,4.8356409757302465,8.214473292722731,1.5000000237487257,I,38780719069267
Raw,1715780170000,14046000000,,,-1399815373954482328,0.0,13.561130273979348,,,7,27,0.0,81955,308173927908581,7,41.01763916015625,196.7814531950438,0.15,17,1692.0429561966334,0.09724140158426915,1561097980,,,,2,,5,48.66847610473633,37.50764083862305,24.414473743407566,4.8356409757302465,24.414473743407566,1.5000000237487257,I,38780719069267
Raw,1715780170000,14046000000,,,-1399815373954482328,0.0,13.561130273979348,,,7,28,0.0,81955,308173917895760,13,33.85057067871094,542.4529356889414,0.5874887556399839,17,2137.076393465545,0.09864835851398264,1561097980,,,,1,,5,48.66847610473633,30.340572357177734,24.51447368728003,4.8356409757302465,24.51447368728003,1.5000000237487257,I,38780719069267
Raw,1715780170000,14046000000,,,-1399815373954482328,0.0,13.561130273979348,,,7,30,0.0,81955,308173925331775,6,47.06731033325195,-317.50626870152314,0.15,17,-2722.6884831151833,0.09666146247685854,1561097980,,,,2,,5,48.66847610473633,43.55731201171875,29.91447383750831,4.8356409757302465,29.91447383750831,1.5000000237487257,I,38780719069267
Raw,1715780170000,14046000000,,,-1399815373954482328,0.0,13.561130273979348,,,7,32,0.0,81955,308173927535133,6,42.607086181640625,-107.14443916899813,0.15,17,-1148.972226018314,0.09703710980751519,1561097980,,,,2,,5,48.66847610473633,39.09708786010742,28.114474052525143,4.8356409757302465,28.114474052525143,1.5000000237487257,I,38780719069267
Raw,1715780170000,14046000000,,,-1399815373954482328,0.0,13.561130273979348,,,7,39,0.0,81955,308173868125835,7,41.20573425292969,-221.60178062181308,0.15,17,-873.3922479906028,0.0972152306050152,1561097980,,,,2,,5,48.66847610473633,37.695735931396484,13.814473728335331,4.8356409757302465,13.814473728335331,1.5000000237487257,I,38780719069267
Raw,1715780170000,14046000000,,,-1399815373954482328,0.0,13.561130273979348,,,7,41,0.0,81955,308173922591977,6,45.10403060913086,465.91437206514433,0.15,17,3272.849844836759,0.09682421150422622,1561097980,,,,2,,5,48.66847610473633,41.594032287597656,44.1144730249075,4.8356409757302465,44.1144730249075,1.5000000237487257,I,38780719069267
Raw,1715780170000,14046000000,,,-1399815373954482328,0.0,13.561130273979348,,,7,20,0.0,16418,308173916042716,1000000000,19.699787139892578,-534.4099531039494,299792458,16,-1037.2950198353108,340282346638528860000000000000000000000,1176450050,,,,0,,5,26.046100616455078,15.689787864685059,27.35760087901926,11.506922879693287,27.35760087901926,1.5000000237487257,Q,38780719069267
Raw,1715780170000,14046000000,,,-1399815373954482328,0.0,13.561130273979348,,,7,27,0.0,16418,308173927908587,1000000000,14.120214462280273,196.32382805131203,299792458,16,578.5101584653413,340282346638528860000000000000000000000,1176450050,,,,1,,5,26.046100616455078,10.110214233398438,37.020072591431486,11.506922879693287,37.020072591431486,1.5000000237487257,Q,38780719069267
Raw,1715780170000,14046000000,,,-1399815373954482328,0.0,13.561130273979348,,,7,28,0.0,81959,308173917895739,7,17.699066162109375,541.9777239976438,1.33628818038728,16,1051.5221688249915,340282346638528860000000000000000000000,1176450050,,,,0,,5,26.046100616455078,13.689065933227539,37.48573376379659,11.506922879693287,37.48573376379659,1.5000000237487257,Q,38780719069267
Raw,1715780170000,14046000000,,,-1399815373954482328,0.0,13.561130273979348,,,7,30,0.0,16418,308173925331780,1000000000,19.607269287109375,-318.0998487643244,299792458,16,-935.8374251960396,340282346638528860000000000000000000000,1176450050,,,,0,,5,26.046100616455078,15.597269058227539,37.834978847791646,11.506922879693287,37.834978847791646,1.5000000237487257,Q,38780719069267
Raw,1715780170000,14046000000,,,-1399815373954482328,0.0,13.561130273979348,,,7,32,0.0,16418,308173927535135,1000000000,11.010000228881836,-106.9557416484596,299792458,16,-315.3630605920873,340282346638528860000000000000000000000,1176450050,,,,1,,5,26.046100616455078,7.0,31.082891053218866,11.506922879693287,31.082891053218866,1.5000000237487257,Q,38780719069267
Raw,1715780170000,14046000000,,,-1399815373954482328,0.0,13.561130273979348,,,7,39,0.0,16418,308173868125845,1000000000,17.375761032104492,-222.35498586973893,299792458,16,-429.84830520941216,340282346638528860000000000000000000000,1176450050,,,,0,,5,26.046100616455078,13.365760803222656,34.575350641235914,11.506922879693287,34.575350641235914,1.5000000237487257,Q,38780719069267
Raw,1715780170000,14046000000,,,-1399815373954482328,0.0,13.561130273979348,,,7,41,0.0,16418,308173922591990,1000000000,14.806793212890625,465.4032033822152,299792458,16,902.4509933465888,340282346638528860000000000000000000000,1176450050,,,,1,,5,26.046100616455078,10.796792984008789,21.65324982757934,11.506922879693287,21.65324982757934,1.5000000237487257,Q,38780719069267
Raw,1715780170000,14046000000,,,-1399815373954482328,0.0,13.561130273979348,,,7,2,0.0,85026,308187909946545,101,33.157875061035156,516.1630238605933,0.6157696058819564,25,2034.049744063079,0.002820951398462057,1575420030,,,,2,,6,33.575069427490234,29.647876739501953,3.899913329353961,1.5000000237487257,3.899913329353961,1.5000000237487257,C,38780719069267
Raw,1715780170000,14046000000,,,-1399815373954482328,0.0,13.561130273979348,,,7,5,0.0,85026,308187924461703,13,42.10379409790039,-310.7367430220495,0.15,25,-3836.5213978928687,0.0010682574938982725,1575420030,,,,2,,6,33.575069427490234,38.59379577636719,-0.291038315440289,1.5000000237487257,-0.291038315440289,1.5000000237487257,C,38780719069267
Raw,1715780170000,14046000000,,,-1399815373954482328,0.0,13.561130273979348,,,7,9,0.0,21546,308187917028828,14,41.704505920410156,214.8841966060802,0.15,25,1266.9270409379164,0.0011185110779479146,1575420030,,,,2,,6,33.575069427490234,38.19450759887695,2.037268142844311,1.5000000237487257,2.037268142844311,1.5000000237487257,C,38780719069267
Raw,1715780170000,14046000000,,,-1399815373954482328,0.0,13.561130273979348,,,7,30,0.0,85026,308187910727083,23,35.67958068847656,280.3948190613893,0.5032312316116265,25,1105.0233306189016,0.0021101355087012053,1575420030,,,,1,,6,33.575069427490234,32.16958236694336,1.3387761854769615,1.5000000237487257,1.3387761854769615,1.5000000237487257,C,38780719069267
Raw,1715780170000,14046000000,,,-1399815373954482328,0.0,13.561130273979348,,,7,34,0.0,85026,308187918447817,16,39.73270034790039,-202.73139804251343,0.15,25,-1474.097846722951,0.0014035588828846812,1575420030,,,,2,,6,33.575069427490234,36.22270202636719,-0.9895301733977916,1.5000000237487257,-0.9895301733977916,1.5000000237487257,C,38780719069267
Raw,1715780170000,14046000000,,,-1399815373954482328,0.0,13.561130273979348,,,7,36,0.0,85026,308187919411290,12,45.6546516418457,126.20370672234719,0.15,25,1076.0961857431848,0.0007481899810954928,1575420030,,,,2,,6,33.575069427490234,42.1446533203125,-3.5506674166846386,1.5000000237487257,-3.5506674166846386,1.5000000237487257,C,38780719069267
Raw,1715780170000,14046000000,,,-1399815373954482328,0.0,13.561130273979348,,,7,2,0.0,16418,308187909946336,1000000000,16.271032333374023,515.7666108087765,299792458,16,-68.98471996362127,340282346638528860000000000000000000000,1176450050,,,,0,,6,26.046100616455078,12.261032104492188,6.3010722940275725,11.506922879693287,6.3010722940275725,1.5000000237487257,Q,38780719069267
Raw,1715780170000,14046000000,,,-1399815373954482328,0.0,13.561130273979348,,,7,5,0.0,84003,308187924461620,6,26.20701026916504,-310.763634080246,0.9669206228980887,16,-2835.067733198033,340282346638528860000000000000000000000,1176450050,,,,2,,6,26.046100616455078,22.197010040283203,-1.214561062983111,11.506922879693287,-1.214561062983111,1.5000000237487257,Q,38780719069267
Raw,1715780170000,14046000000,,,-1399815373954482328,0.0,13.561130273979348,,,7,9,0.0,16418,308187917028779,1000000000,17.949016571044922,214.68178089679122,299792458,16,1265.336422487793,340282346638528860000000000000000000000,1176450050,,,,0,,6,26.046100616455078,13.939016342163086,2.960790890387133,11.506922879693287,2.960790890387133,1.5000000237487257,Q,38780719069267
Raw,1715780170000,14046000000,,,-1399815373954482328,0.0,13.561130273979348,,,7,30,0.0,16418,308187910726914,1000000000,18.174306869506836,280.00230845084434,299792458,16,-525.2678204013831,340282346638528860000000000000000000000,1176450050,,,,0,,6,26.046100616455078,14.164306640625,1.708185264612121,11.506922879693287,1.708185264612121,1.5000000237487257,Q,38780719069267
Raw,1715780170000,14046000000,,,-1399815373954482328,0.0,13.561130273979348,,,7,34,0.0,84003,308187918447738,6,25.57541847229004,-202.74702484882914,1.32576149416718,16,-1680.7624791667304,340282346638528860000000000000000000000,1176450050,,,,2,,6,26.046100616455078,21.565418243408203,-2.4671664899384287,11.506922879693287,-2.4671664899384287,1.5000000237487257,Q,38780719069267
Raw,1715780170000,14046000000,,,-1399815373954482328,0.0,13.561130273979348,,,7,36,0.0,84003,308187919411206,26,18.115320205688477,125.98798181378606,1.317842249005671,16,944.85943504136,340282346638528860000000000000000000000,1176450050,,,,2,,6,26.046100616455078,14.10531997680664,-7.060054115812963,11.506922879693287,-7.060054115812963,1.5000000237487257,Q,38780719069267
Raw,1715780170000,14046000000,,,-1399815373954482328,0.0,13.561130273979348,,,7,3,0.0,16384,308187872097721,1000000000,22.106592178344727,34.0604946398885,299792458,16,134.91465329385784,340282346638528860000000000000000000000,1176450050,,,,0,,7,,18.59659194946289,-25.454867809628794,1.5000000237487257,-25.454867809628794,1.5000000237487257,C,38780719069267
Raw,1715780170000,14046000000,,,-1399815373954482328,0.0,13.561130273979348,,,7,6,0.0,16385,308187877495676,68,22.13641929626465,23.820058451509567,1.1141889205142155,16,159.18858671679007,340282346638528860000000000000000000000,1176450050,,,,2,,7,,18.626419067382812,-23.36543227865141,1.5000000237487257,-23.36543227865141,1.5000000237487257,C,38780719069267
Raw,1715780170000,14046000000,,,-1399815373954482328,0.0,13.561130273979348,,,7,9,0.0,16385,308187880019770,53,25.1868953704834,-4.937645830134137,1.393541248827174,16,-39.0435034352121,340282346638528860000000000000000000000,1176450050,,,,2,,7,,21.676895141601562,-23.36543227865141,1.5000000237487257,-23.36543227865141,1.5000000237487257,C,38780719069267
Agc,1715780170000,14046000000,,,-1399815373954482328,0.0,13.561130273979348,,,7,34.44438171386719,1575420000,1
Agc,1715780170000,14046000000,,,-1399815373954482328,0.0,13.561130273979348,,,7,26.666786193847656,1176450000,1
Agc,1715780170000,14046000000,,,-1399815373954482328,0.0,13.561130273979348,,,7,48.66847610473633,1602000000,3
Agc,1715780170000,14046000000,,,-1399815373954482328,0.0,13.561130273979348,,,7,34.44438171386719,1575420000,6
Agc,1715780170000,14046000000,,,-1399815373954482328,0.0,13.561130273979348,,,7,26.666786193847656,1176450000,6
Agc,1715780170000,14046000000,,,-1399815373954482328,0.0,13.561130273979348,,,7,49.79810333251953,1561096000,5
Agc,1715780170000,14046000000,,,-1399815373954482328,0.0,13.561130273979348,,,7,34.44438171386719,1575420000,5
Agc,1715780170000,14046000000,,,-1399815373954482328,0.0,13.561130273979348,,,7,26.666786193847656,1176450000,5
Fix,FLP,32.1026425000,35.2097165000,703.0000610351562,0.25211674,9.201,99.800064,1715780170441,0.22479771,45.0,38780730128661,1.574388,0,,,
Status,1715780170000,49,0,5,32,1561097980,42.63,222.0,76.0,1,1,1,39.116203
Status,1715780170000,49,1,5,32,1176450050,19.69,222.0,76.0,0,1,1,15.67975
Status,1715780170000,49,2,3,5,1602562560,47.03,196.0,75.0,1,1,1,43.52412
Status,1715780170000,49,3,1,27,1575420030,46.68,214.0,72.0,1,1,1,43.167763
Status,1715780170000,49,4,1,27,1176450050,27.67,214.0,72.0,0,1,1,23.659904
Status,1715780170000,49,5,5,27,1561097980,45.14,112.0,69.0,1,1,1,41.632217
Status,1715780170000,49,6,5,27,1176450050,23.88,112.0,69.0,0,1,1,19.86816
Status,1715780170000,49,7,7,9,1176450050,27.01,125.0,69.0,1,1,1,23.504812
Status,1715780170000,49,8,1,32,1575420030,46.67,118.0,61.0,1,1,1,43.162674
Status,1715780170000,49,9,1,32,1176450050,30.10,118.0,61.0,1,1,1,26.086037
Status,1715780170000,49,10,1,8,1575420030,41.36,299.0,54.0,1,1,1,37.852745
Status,1715780170000,49,11,1,10,1575420030,47.89,27.0,54.0,1,1,1,44.375496
Status,1715780170000,49,12,1,8,1176450050,27.60,299.0,54.0,1,1,1,23.593424
Status,1715780170000,49,13,1,10,1176450050,24.30,27.0,54.0,0,1,1,20.2925
Status,1715780170000,49,14,5,30,1561097980,47.95,321.0,54.0,1,1,1,44.4439
Status,1715780170000,49,15,5,30,1176450050,20.06,321.0,54.0,0,1,1,16.054207
Status,1715780170000,49,16,6,5,1575420030,42.09,152.0,54.0,1,1,1,38.575233
Status,1715780170000,49,17,6,36,1575420030,46.67,61.0,54.0,1,1,1,43.161903
Status,1715780170000,49,18,6,5,1176450050,29.19,152.0,54.0,1,1,1,25.1828
Status,1715780170000,49,19,6,36,1176450050,22.01,61.0,54.0,0,1,1,17.997688
Status,1715780170000,49,20,7,6,1176450050,25.77,185.0,52.0,1,1,1,22.260098
Status,1715780170000,49,21,3,19,1603687550,32.81,90.0,50.0,1,1,1,29.302784
Status,1715780170000,49,22,3,4,1605374980,44.90,32.0,49.0,1,1,1,41.391865
Status,1715780170000,49,23,6,34,1575420030,40.10,327.0,48.0,1,1,1,36.58703
Status,1715780170000,49,24,6,34,1176450050,32.32,327.0,48.0,1,1,1,28.307514
Status,1715780170000,49,25,5,41,1561097980,46.33,41.0,45.0,1,1,1,42.819977
Status,1715780170000,49,26,5,41,1176450050,23.48,41.0,45.0,0,1,1,19.468813
Status,1715780170000,49,27,3,20,1603124990,29.76,342.0,43.0,1,1,1,26.246855
Status,1715780170000,49,28,6,9,1575420030,42.18,62.0,43.0,1,1,1,38.66547
Status,1715780170000,49,29,6,9,1176450050,23.89,62.0,43.0,0,1,1,19.884205
Status,1715780170000,49,30,7,3,1176450050,23.13,112.0,29.0,0,1,1,19.621302
Status,1715780170000,49,31,1,21,1575420030,38.21,309.0,27.0,1,1,1,34.700504
Status,1715780170000,49,32,1,23,1575420030,29.55,48.0,22.0,1,1,1,26.044584
Status,1715780170000,49,33,1,23,1176450050,17.34,48.0,22.0,0,1,1,13.333544
Status,1715780170000,49,34,5,28,1561097980,34.37,128.0,22.0,1,1,1,30.862307
Status,1715780170000,49,35,5,28,1176450050,23.27,128.0,22.0,0,1,1,19.259724
Status,1715780170000,49,36,5,13,1561097980,31.73,55.0,20.0,1,1,1,28.219828
Status,1715780170000,49,37,5,39,1561097980,43.48,79.0,20.0,1,1,1,39.97193
Status,1715780170000,49,38,5,39,1176450050,24.53,79.0,20.0,0,1,1,20.515007
Status,1715780170000,49,39,6,30,1575420030,35.94,273.0,20.0,1,1,1,32.431355
Status,1715780170000,49,40,6,30,1176450050,24.04,273.0,20.0,0,1,1,20.029823
Status,1715780170000,49,41,5,6,1561097980,26.95,93.0,19.0,1,1,1,23.444834
Status,1715780170000,49,42,5,20,1561097980,42.34,221.0,19.0,1,1,1,38.83009
Status,1715780170000,49,43,5,20,1176450050,24.22,221.0,19.0,0,1,1,20.214186
Status,1715780170000,49,44,5,16,1561097980,28.60,86.0,18.0,1,1,1,25.093142
Status,1715780170000,49,45,5,9,1561097980,24.93,105.0,17.0,1,1,1,21.423273
Status,1715780170000,49,46,1,16,1575420030,39.31,215.0,16.0,1,1,1,35.80019
Status,1715780170000,49,47,6,2,1575420030,37.47,220.0,16.0,1,1,1,33.960094
Status,1715780170000,49,48,6,2,1176450050,23.25,220.0,16.0,0,1,1,19.236145
Fix,GPS,32.1025956824,35.2096973796,709.174284043921,0.0,3.092107,,1715780171000,0.11215505,,38781661137098,4.23704,0,,,
Status,1715780171000,49,0,5,32,1561097980,42.63,222.0,76.0,1,1,1,39.116203
Status,1715780171000,49,1,5,32,1176450050,19.69,222.0,76.0,0,1,1,15.67975
Status,1715780171000,49,2,3,5,1602562560,47.03,196.0,75.0,1,1,1,43.52412
Status,1715780171000,49,3,1,27,1575420030,46.68,214.0,72.0,1,1,1,43.167763
Status,1715780171000,49,4,1,27,1176450050,27.67,214.0,72.0,0,1,1,23.659904
Status,1715780171000,49,5,5,27,1561097980,45.14,112.0,69.0,1,1,1,41.632217
Status,1715780171000,49,6,5,27,1176450050,23.88,112.0,69.0,0,1,1,19.86816
Status,1715780171000,49,7,7,9,1176450050,27.01,125.0,69.0,1,1,1,23.504812
Status,1715780171000,49,8,1,32,1575420030,46.67,118.0,61.0,1,1,1,43.162674
Status,1715780171000,49,9,1,32,1176450050,30.10,118.0,61.0,1,1,1,26.086037
Status,1715780171000,49,10,1,8,1575420030,41.36,299.0,54.0,1,1,1,37.852745
Status,1715780171000,49,11,1,10,1575420030,47.89,27.0,54.0,1,1,1,44.375496
Status,1715780171000,49,12,1,8,1176450050,27.60,299.0,54.0,1,1,1,23.593424
Status,1715780171000,49,13,1,10,1176450050,24.30,27.0,54.0,0,1,1,20.2925
Status,1715780171000,49,14,5,30,1561097980,47.95,321.0,54.0,1,1,1,44.4439
Status,1715780171000,49,15,5,30,1176450050,20.06,321.0,54.0,0,1,1,16.054207
Status,1715780171000,49,16,6,5,1575420030,42.09,152.0,54.0,1,1,1,38.575233
Status,1715780171000,49,17,6,36,1575420030,46.67,61.0,54.0,1,1,1,43.161903
Status,1715780171000,49,18,6,5,1176450050,29.19,152.0,54.0,1,1,1,25.1828
Status,1715780171000,49,19,6,36,1176450050,22.01,61.0,54.0,0,1,1,17.997688
Status,1715780171000,49,20,7,6,1176450050,25.77,185.0,52.0,1,1,1,22.260098
Status,1715780171000,49,21,3,19,1603687550,32.81,90.0,50.0,1,1,1,29.302784
Status,1715780171000,49,22,3,4,1605374980,44.90,32.0,49.0,1,1,1,41.391865
Status,1715780171000,49,23,6,34,1575420030,40.10,327.0,48.0,1,1,1,36.58703
Status,1715780171000,49,24,6,34,1176450050,32.32,327.0,48.0,1,1,1,28.307514
Status,1715780171000,49,25,5,41,1561097980,46.33,41.0,45.0,1,1,1,42.819977
Status,1715780171000,49,26,5,41,1176450050,23.48,41.0,45.0,0,1,1,19.468813
Status,1715780171000,49,27,3,20,1603124990,29.76,342.0,43.0,1,1,1,26.246855
Status,1715780171000,49,28,6,9,1575420030,42.18,62.0,43.0,1,1,1,38.66547
Status,1715780171000,49,29,6,9,1176450050,23.89,62.0,43.0,0,1,1,19.884205
Status,1715780171000,49,30,7,3,1176450050,23.13,112.0,29.0,0,1,1,19.621302
Status,1715780171000,49,31,1,21,1575420030,38.21,309.0,27.0,1,1,1,34.700504
Status,1715780171000,49,32,1,23,1575420030,29.55,48.0,22.0,1,1,1,26.044584
Status,1715780171000,49,33,1,23,1176450050,17.34,48.0,22.0,0,1,1,13.333544
Status,1715780171000,49,34,5,28,1561097980,34.37,128.0,22.0,1,1,1,30.862307
Status,1715780171000,49,35,5,28,1176450050,23.27,128.0,22.0,0,1,1,19.259724
Status,1715780171000,49,36,5,13,1561097980,31.73,55.0,20.0,1,1,1,28.219828
Status,1715780171000,49,37,5,39,1561097980,43.48,79.0,20.0,1,1,1,39.97193
Status,1715780171000,49,38,5,39,1176450050,24.53,79.0,20.0,0,1,1,20.515007
Status,1715780171000,49,39,6,30,1575420030,35.94,273.0,20.0,1,1,1,32.431355
Status,1715780171000,49,40,6,30,1176450050,24.04,273.0,20.0,0,1,1,20.029823
Status,1715780171000,49,41,5,6,1561097980,26.95,93.0,19.0,1,1,1,23.444834
Status,1715780171000,49,42,5,20,1561097980,42.34,221.0,19.0,1,1,1,38.83009
Status,1715780171000,49,43,5,20,1176450050,24.22,221.0,19.0,0,1,1,20.214186
Status,1715780171000,49,44,5,16,1561097980,28.60,86.0,18.0,1,1,1,25.093142
Status,1715780171000,49,45,5,9,1561097980,24.93,105.0,17.0,1,1,1,21.423273
Status,1715780171000,49,46,1,16,1575420030,39.31,215.0,16.0,1,1,1,35.80019
Status,1715780171000,49,47,6,2,1575420030,37.47,220.0,16.0,1,1,1,33.960094
Status,1715780171000,49,48,6,2,1176450050,23.25,220.0,16.0,0,1,1,19.236145
Fix,FLP,32.1026330000,35.2097143000,703.0000610351562,0.14175385,8.649,103.81394,1715780171442,0.16685419,45.0,38781731257429,1.6014783,0,,,
Raw,1715780171000,15046000000,,,-1399815373954482201,0.0,12.040459434663513,,,7,8,0.0,16419,308188929870685,14,41.36274337768555,-192.6334307827069,0.15,17,-2406.6983010036192,0.09631023478050506,1575420030,,,,2,,1,34.44438171386719,37.852745056152344,-5.704350952030072,1.0,-5.704350952030072,1.0,C,38781711250257
Raw,1715780171000,15046000000,,,-1399815373954482201,0.0,12.040459434663513,,,7,10,0.0,16431,308188929263525,10,47.885494232177734,356.04510866206056,0.15,25,4432.660095803255,0.0005787215777672827,1575420030,,,,2,,1,34.44438171386719,44.37549591064453,-3.143213708743226,1.0,-3.143213708743226,1.0,C,38781711250257
Raw,1715780171000,15046000000,,,-1399815373954482201,0.0,12.040459434663513,,,7,16,0.0,16431,308188918580765,22,35.87961959838867,589.4323641722658,0.4963679434966435,25,7690.062776855991,0.002062093699350953,1575420030,,,,1,,1,34.44438171386719,32.36962127685547,10.244548177868609,1.0,10.244548177868609,1.0,C,38781711250257
Raw,1715780171000,15046000000,,,-1399815373954482201,0.0,12.040459434663513,,,7,21,0.0,16419,308188923367224,18,38.21050262451172,-347.66508466451455,0.15,17,-4329.44708557931,0.09681923795779025,1575420030,,,,2,,1,34.44438171386719,34.700504302978516,10.244548177868609,1.0,10.244548177868609,1.0,C,38781711250257
Raw,1715780171000,15046000000,,,-1399815373954482201,0.0,12.040459434663513,,,7,23,0.0,16419,308188922230527,79,20.39472770690918,565.8255596512195,1.189765170238398,16,7060.988761358951,340282346638528860000000000000000000000,1575420030,,,,2,,1,34.44438171386719,16.884727478027344,8.178176129039379,1.0,8.178176129039379,1.0,C,38781711250257
Raw,1715780171000,15046000000,,,-1399815373954482201,0.0,12.040459434663513,,,7,27,0.0,16431,308188931970605,11,46.67776107788086,259.5285848693421,0.15,25,3374.170973273636,0.0006650530267506838,1575420030,,,,1,,1,34.44438171386719,43.167762756347656,-2.7648638073768854,1.0,-2.7648638073768854,1.0,C,38781711250257
Raw,1715780171000,15046000000,,,-1399815373954482201,0.0,12.040459434663513,,,7,32,0.0,16431,308188929849771,13,42.728126525878906,-114.54231753754044,0.15,25,-1872.2180889485885,0.000994166941381991,1575420030,,,,2,,1,34.44438171386719,39.2181282043457,-1.222360875687938,1.0,-1.222360875687938,1.0,C,38781711250257
Raw,1715780171000,15046000000,,,-1399815373954482201,0.0,12.040459434663513,,,7,8,0.0,81921,308188929870604,6,27.603424072265625,-192.74056898478636,0.8894568574420618,25,-2407.379496792305,0.007584747392684221,1176450050,,,,2,,1,26.666786193847656,23.59342384338379,1.1931006807257558,11.00692285594456,1.1931006807257558,1.0,Q,38781711250257
Raw,1715780171000,15046000000,,,-1399815373954482201,0.0,12.040459434663513,,,7,10,0.0,81921,308188929263451,35,17.57634735107422,356.304987393047,299.7941272834664,16,4428.3144710786055,340282346638528860000000000000000000000,1176450050,,,,2,,1,26.666786193847656,13.566347122192383,8.55655704627799,11.00692285594456,8.55655704627799,1.0,Q,38781711250257
Raw,1715780171000,15046000000,,,-1399815373954482201,0.0,12.040459434663513,,,7,23,0.0,16384,308188922230486,1000000000,15.711318969726562,566.0281116903345,299792458,16,7065.248697557606,340282346638528860000000000000000000000,1176450050,,,,2,,1,26.666786193847656,11.701318740844727,7.8872273651735085,11.00692285594456,7.8872273651735085,1.0,Q,38781711250257
Raw,1715780171000,15046000000,,,-1399815373954482201,0.0,12.040459434663513,,,7,27,0.0,81921,308188931970533,6,27.669904708862305,259.39810018454455,0.8868450229418099,25,4134.081356965433,0.007526916917413473,1176450050,,,,2,,1,26.666786193847656,23.65990447998047,3.900008149650271,11.00692285594456,3.900008149650271,1.0,Q,38781711250257
Raw,1715780171000,15046000000,,,-1399815373954482201,0.0,12.040459434663513,,,7,32,0.0,81921,308188929849704,6,30.096036911010742,-114.53804870986096,0.7773630528707312,25,4476.052146170078,0.005692597478628159,1176450050,,,,2,,1,26.666786193847656,26.086036682128906,8.381787377706875,11.00692285594456,8.381787377706875,1.0,Q,38781711250257
Raw,1715780171000,15046000000,,,-1399815373954482201,0.0,12.040459434663513,,,7,5,0.0,32867,59770936210871,33,47.03411865234375,-176.28797882998663,0.15,17,-1896.649118571208,0.09416284899293298,1602562560,,,,2,,3,48.66847610473633,43.52412033081055,25.69868143608009,2.0000000474974513,25.69868143608009,2.0000000474974513,C,38781711250257
Raw,1715780171000,15046000000,,,-1399815373954482201,0.0,12.040459434663513,,,7,20,0.0,32803,59770931182014,86,27.96903419494629,-441.0269533227099,0.8507672782318614,17,-3487.7908127762457,0.09854062130841404,1603124990,,,,2,,3,48.66847610473633,24.459033966064453,28.550858502652677,2.0000000474974513,28.550858502652677,2.0000000474974513,C,38781711250257
Raw,1715780171000,15046000000,,,-1399815373954482201,0.0,12.040459434663513,,,7,19,0.0,32867,59770932435877,125,23.348405838012695,237.89033191336853,1.058777170101426,16,2821.4814340776384,340282346638528860000000000000000000000,1603687550,,,,2,,3,48.66847610473633,19.83840560913086,27.124768975267912,2.0000000474974513,27.124768975267912,2.0000000474974513,C,38781711250257
Raw,1715780171000,15046000000,,,-1399815373954482201,0.0,12.040459434663513,,,7,4,0.0,32867,59770932607712,33,43.40131759643555,555.6874262164008,0.15,17,7179.757534054809,0.09427433171992058,1605374980,,,,2,,3,48.66847610473633,39.891319274902344,17.14215540567437,2.0000000474974513,17.14215540567437,2.0000000474974513,C,38781711250257
Raw,1715780171000,15046000000,,,-1399815373954482201,0.0,12.040459434663513,,,7,6,0.0,81955,308174868000115,25,26.05616569519043,-283.18158816020514,0.9362144597245692,16,-1398.107506257523,340282346638528860000000000000000000000,1561097980,,,,2,,5,49.79810333251953,22.546165466308594,11.814473657967843,4.8356409757302465,11.814473657967843,1.5000000237487257,I,38781711250257
Raw,1715780171000,15046000000,,,-1399815373954482201,0.0,12.040459434663513,,,7,9,0.0,81955,308174865527942,41,19.704477310180664,-292.087368132072,1.2213980833332272,16,-1444.7120322595874,340282346638528860000000000000000000000,1561097980,,,,2,,5,49.79810333251953,16.194477081298828,13.414473555206078,4.8356409757302465,13.414473555206078,1.5000000237487257,I,38781711250257
Raw,1715780171000,15046000000,,,-1399815373954482201,0.0,12.040459434663513,,,7,13,0.0,81955,308174869032341,25,26.01164436340332,109.22604224235704,0.9384022605372229,16,540.1250233067627,340282346638528860000000000000000000000,1561097980,,,,1,,5,49.79810333251953,22.501644134521484,30.41447355687064,4.8356409757302465,30.41447355687064,1.5000000237487257,I,38781711250257
Raw,1715780171000,15046000000,,,-1399815373954482201,0.0,12.040459434663513,,,7,16,0.0,81955,308174866542828,24,26.60672378540039,-253.50054007275048,0.91119434200274,17,-1254.2822882598455,0.10207202951927637,1561097980,,,,2,,5,49.79810333251953,23.096723556518555,23.51447365209629,4.8356409757302465,23.51447365209629,1.5000000237487257,I,38781711250257
Raw,1715780171000,15046000000,,,-1399815373954482201,0.0,12.040459434663513,,,7,20,0.0,81955,308174916044496,6,42.340087890625,-533.9173252773687,0.15,17,-2639.8075894607287,0.09706886860580151,1561097980,,,,1,,5,49.79810333251953,38.8300895690918,8.214473292722731,4.8356409757302465,8.214473292722731,1.5000000237487257,I,38781711250257
Raw,1715780171000,15046000000,,,-1399815373954482201,0.0,12.040459434663513,,,7,27,0.0,81955,308174927907932,7,40.876834869384766,197.08066308085756,0.15,17,1888.9313791629286,0.09726136716120844,1561097980,,,,2,,5,49.79810333251953,37.36683654785156,24.414473743407566,4.8356409757302465,24.414473743407566,1.5000000237487257,I,38781711250257
Raw,1715780171000,15046000000,,,-1399815373954482201,0.0,12.040459434663513,,,7,28,0.0,81955,308174917893949,12,34.37230682373047,542.7909314102781,0.5640265789581154,17,2679.6881664138823,0.09849511380811189,1561097980,,,,1,,5,49.79810333251953,30.862306594848633,24.51447368728003,4.8356409757302465,24.51447368728003,1.5000000237487257,I,38781711250257
Raw,1715780171000,15046000000,,,-1399815373954482201,0.0,12.040459434663513,,,7,30,0.0,81955,308174925332829,6,47.95389938354492,-317.2027644261875,0.15,17,-3040.071050262908,0.09659919250328992,1561097980,,,,2,,5,49.79810333251953,44.44390106201172,29.91447383750831,4.8356409757302465,29.91447383750831,1.5000000237487257,I,38781711250257
Raw,1715780171000,15046000000,,,-1399815373954482201,0.0,12.040459434663513,,,7,32,0.0,81955,308174927535485,6,42.62620162963867,-106.76662661782865,0.15,17,-1255.928514707843,0.09703487311993693,1561097980,,,,2,,5,49.79810333251953,39.11620330810547,28.114474052525143,4.8356409757302465,28.114474052525143,1.5000000237487257,I,38781711250257
Raw,1715780171000,15046000000,,,-1399815373954482201,0.0,12.040459434663513,,,7,39,0.0,81955,308174868126567,6,43.481929779052734,-221.28525684808574,0.15,17,-1094.8425089430327,0.09693963199892049,1561097980,,,,2,,5,49.79810333251953,39.97193145751953,13.814473728335331,4.8356409757302465,13.814473728335331,1.5000000237487257,I,38781711250257
Raw,1715780171000,15046000000,,,-1399815373954482201,0.0,12.040459434663513,,,7,41,0.0,81955,308174922590418,6,45.48884582519531,466.2401662670459,0.15,17,3738.917597617201,0.09678934901525234,1561097980,,,,2,,5,49.79810333251953,41.97884750366211,44.1144730249075,4.8356409757302465,44.1144730249075,1.5000000237487257,I,38781711250257
Raw,1715780171000,15046000000,,,-1399815373954482201,0.0,12.040459434663513,,,7,20,0.0,16418,308174916044506,1000000000,19.07225799560547,-534.1390657395061,299792458,16,-1573.8290444121799,340282346638528860000000000000000000000,1176450050,,,,2,,5,26.666786193847656,15.062257766723633,27.35760087901926,11.506922879693287,27.35760087901926,1.5000000237487257,Q,38781711250257
Raw,1715780171000,15046000000,,,-1399815373954482201,0.0,12.040459434663513,,,7,27,0.0,81959,308174927907945,7,23.87816047668457,197.00322773963774,1.0602222130041548,16,772.9683591438353,340282346638528860000000000000000000000,1176450050,,,,1,,5,26.666786193847656,19.868160247802734,37.020072591431486,11.506922879693287,37.020072591431486,1.5000000237487257,Q,38781711250257
Raw,1715780171000,15046000000,,,-1399815373954482201,0.0,12.040459434663513,,,7,28,0.0,81959,308174917893939,10,15.677640914916992,541.7816135428116,1.4271891540293185,16,1593.7870914073565,340282346638528860000000000000000000000,1176450050,,,,2,,5,26.666786193847656,11.667640686035156,37.48573376379659,11.506922879693287,37.48573376379659,1.5000000237487257,Q,38781711250257
Raw,1715780171000,15046000000,,,-1399815373954482201,0.0,12.040459434663513,,,7,30,0.0,16418,308174925332876,1000000000,20.064207077026367,-317.74866313231337,299792458,16,-1251.1145316713728,340282346638528860000000000000000000000,1176450050,,,,2,,5,26.666786193847656,16.05420684814453,37.834978847791646,11.506922879693287,37.834978847791646,1.5000000237487257,Q,38781711250257
Raw,1715780171000,15046000000,,,-1399815373954482201,0.0,12.040459434663513,,,7,32,0.0,16418,308174927535518,1000000000,19.68975067138672,-107.32328685960158,299792458,16,-422.68522345322344,340282346638528860000000000000000000000,1176450050,,,,1,,5,26.666786193847656,15.679750442504883,31.082891053218866,11.506922879693287,31.082891053218866,1.5000000237487257,Q,38781711250257
Raw,1715780171000,15046000000,,,-1399815373954482201,0.0,12.040459434663513,,,7,39,0.0,81959,308174868126610,24,24.525007247924805,-221.38445383779538,1.0383687016432437,16,-649.8277204347605,340282346638528860000000000000000000000,1176450050,,,,2,,5,26.666786193847656,20.51500701904297,34.575350641235914,11.506922879693287,34.575350641235914,1.5000000237487257,Q,38781711250257
Raw,1715780171000,15046000000,,,-1399815373954482201,0.0,12.040459434663513,,,7,41,0.0,81959,308174922590427,6,23.47881317138672,466.11147091121575,1.0772239002906097,16,1368.5492393428456,340282346638528860000000000000000000000,1176450050,,,,1,,5,26.666786193847656,19.468812942504883,21.65324982757934,11.506922879693287,21.65324982757934,1.5000000237487257,Q,38781711250257
Raw,1715780171000,15046000000,,,-1399815373954482201,0.0,12.040459434663513,,,7,2,0.0,85026,308188909944832,21,36.64374923706055,516.432241184667,0.15,25,2550.3506491006083,0.0020029875449836254,1575420030,,,,2,,6,34.44438171386719,33.133750915527344,3.899913329353961,1.5000000237487257,3.899913329353961,1.5000000237487257,C,38781711250257
Raw,1715780171000,15046000000,,,-1399815373954482201,0.0,12.040459434663513,,,7,5,0.0,85026,308188924462739,13,42.08523178100586,-310.37420793201636,0.15,25,-4147.067637302915,0.0010705427266657352,1575420030,,,,2,,6,34.44438171386719,38.575233459472656,-0.291038315440289,1.5000000237487257,-0.291038315440289,1.5000000237487257,C,38781711250257
Raw,1715780171000,15046000000,,,-1399815373954482201,0.0,12.040459434663513,,,7,9,0.0,21546,308188917028106,13,42.17546844482422,215.23522886703688,0.15,25,1481.9830487898057,0.0010594786144793034,1575420030,,,,2,,6,34.44438171386719,38.665470123291016,2.037268142844311,1.5000000237487257,2.037268142844311,1.5000000237487257,C,38781711250257
Raw,1715780171000,15046000000,,,-1399815373954482201,0.0,12.040459434663513,,,7,30,0.0,85026,308188910726140,22,35.94135284423828,280.73768857400876,0.4907399447287186,25,1385.5655706558048,0.002047489630058408,1575420030,,,,1,,6,34.44438171386719,32.43135452270508,1.3387761854769615,1.5000000237487257,1.3387761854769615,1.5000000237487257,C,38781711250257
Raw,1715780171000,15046000000,,,-1399815373954482201,0.0,12.040459434663513,,,7,34,0.0,85026,308188918448485,18,38.77132034301758,-202.50232985222362,0.15,25,-1676.746535720422,0.0015678326599299908,1575420030,,,,2,,6,34.44438171386719,35.261322021484375,-0.9895301733977916,1.5000000237487257,-0.9895301733977916,1.5000000237487257,C,38781711250257
Raw,1715780171000,15046000000,,,-1399815373954482201,0.0,12.040459434663513,,,7,36,0.0,85026,308188919410863,12,45.63137435913086,126.47718435348622,0.15,25,1202.4049723582887,0.0007501974469050765,1575420030,,,,2,,6,34.44438171386719,42.121376037597656,-3.5506674166846386,1.5000000237487257,-3.5506674166846386,1.5000000237487257,C,38781711250257
Raw,1715780171000,15046000000,,,-1399815373954482201,0.0,12.040459434663513,,,7,2,0.0,16418,308188909944615,1000000000,11.61534309387207,518.4236109543817,299792458,16,444.78643765870277,340282346638528860000000000000000000000,1176450050,,,,1,,6,26.666786193847656,7.605342864990234,6.3010722940275725,11.506922879693287,6.3010722940275725,1.5000000237487257,Q,38781711250257
Raw,1715780171000,15046000000,,,-1399815373954482201,0.0,12.040459434663513,,,7,5,0.0,84003,308188924462654,6,26.998958587646484,-310.36899331616837,0.9192637629883027,25,-3145.61135678535,0.00813138298690319,1176450050,,,,2,,6,26.666786193847656,22.98895835876465,-1.214561062983111,11.506922879693287,-1.214561062983111,1.5000000237487257,Q,38781711250257
Raw,1715780171000,15046000000,,,-1399815373954482201,0.0,12.040459434663513,,,7,9,0.0,84003,308188917028028,27,23.89420509338379,215.56100602771016,1.057543611504113,16,1479.3097032996025,340282346638528860000000000000000000000,1176450050,,,,2,,6,26.666786193847656,19.884204864501953,2.960790890387133,11.506922879693287,2.960790890387133,1.5000000237487257,Q,38781711250257
Raw,1715780171000,15046000000,,,-1399815373954482201,0.0,12.040459434663513,,,7,30,0.0,16418,308188910725980,1000000000,18.367490768432617,280.09683614401035,299792458,16,-245.24215741486847,340282346638528860000000000000000000000,1176450050,,,,1,,6,26.666786193847656,14.357490539550781,1.708185264612121,11.506922879693287,1.708185264612121,1.5000000237487257,Q,38781711250257
Raw,1715780171000,15046000000,,,-1399815373954482201,0.0,12.040459434663513,,,7,34,0.0,84003,308188918448406,6,32.31751251220703,-202.56502453099733,0.6790125329211385,25,-1883.3690686284522,0.00440794974565506,1176450050,,,,2,,6,26.666786193847656,28.307514190673828,-2.4671664899384287,11.506922879693287,-2.4671664899384287,1.5000000237487257,Q,38781711250257
Raw,1715780171000,15046000000,,,-1399815373954482201,0.0,12.040459434663513,,,7,36,0.0,84003,308188919410802,6,22.007688522338867,126.076050881441,1.1428068675527339,16,1071.124899116689,340282346638528860000000000000000000000,1176450050,,,,2,,6,26.666786193847656,17.99768829345703,-7.060054115812963,11.506922879693287,-7.060054115812963,1.5000000237487257,Q,38781711250257
Raw,1715780171000,15046000000,,,-1399815373954482201,0.0,12.040459434663513,,,7,3,0.0,16384,308188872097607,1000000000,21.601438522338867,34.0604946398885,299792458,16,168.97514686330453,340282346638528860000000000000000000000,1176450050,,,,0,,7,,18.09143829345703,-25.454867809628794,1.5000000237487257,-25.454867809628794,1.5000000237487257,C,38781711250257
Raw,1715780171000,15046000000,,,-1399815373954482201,0.0,12.040459434663513,,,7,6,0.0,16385,308188877495584,51,25.770097732543945,23.407074935362076,0.9507866403397096,16,184.88281542226204,340282346638528860000000000000000000000,1176450050,,,,1,,7,,22.26009750366211,-23.36543227865141,1.5000000237487257,-23.36543227865141,1.5000000237487257,C,38781711250257
Raw,1715780171000,15046000000,,,-1399815373954482201,0.0,12.040459434663513,,,7,9,0.0,16385,308188880019797,54,25.089914321899414,-4.956449760443832,1.0623971663283145,16,-43.81912135749761,340282346638528860000000000000000000000,1176450050,,,,2,,7,,21.579914093017578,-23.36543227865141,1.5000000237487257,-23.36543227865141,1.5000000237487257,C,38781711250257
Agc,1715780171000,15046000000,,,-1399815373954482201,0.0,12.040459434663513,,,7,32.40216064453125,1575420000,1
Agc,1715780171000,15046000000,,,-1399815373954482201,0.0,12.040459434663513,,,7,27.962825775146484,1176450000,1
Agc,1715780171000,15046000000,,,-1399815373954482201,0.0,12.040459434663513,,,7,48.98435974121094,1602000000,3
Agc,1715780171000,15046000000,,,-1399815373954482201,0.0,12.040459434663513,,,7,32.40216064453125,1575420000,6
Agc,1715780171000,15046000000,,,-1399815373954482201,0.0,12.040459434663513,,,7,27.962825775146484,1176450000,6
Agc,1715780171000,15046000000,,,-1399815373954482201,0.0,12.040459434663513,,,7,48.66847610473633,1561096000,5
Agc,1715780171000,15046000000,,,-1399815373954482201,0.0,12.040459434663513,,,7,32.40216064453125,1575420000,5
Agc,1715780171000,15046000000,,,-1399815373954482201,0.0,12.040459434663513,,,7,27.962825775146484,1176450000,5
Status,1715780171000,48,0,5,32,1561097980,43.96,222.0,76.0,1,1,1,40.448296
Status,1715780171000,48,1,5,32,1176450050,21.13,222.0,76.0,0,1,1,17.115139
Status,1715780171000,48,2,3,5,1602562560,47.02,196.0,75.0,1,1,1,43.513138
Status,1715780171000,48,3,1,27,1575420030,47.34,214.0,72.0,1,1,1,43.833267
Status,1715780171000,48,4,1,27,1176450050,31.03,214.0,72.0,1,1,1,27.020065
Status,1715780171000,48,5,5,27,1561097980,44.81,112.0,69.0,1,1,1,41.30172
Status,1715780171000,48,6,5,27,1176450050,27.54,112.0,69.0,1,1,1,23.528345
Status,1715780171000,48,7,7,9,1176450050,26.63,125.0,69.0,1,1,1,23.119144
Status,1715780171000,48,8,1,32,1575420030,46.30,118.0,61.0,1,1,1,42.78527
Status,1715780171000,48,9,1,32,1176450050,30.08,118.0,61.0,1,1,1,26.068151
Status,1715780171000,48,10,1,8,1575420030,41.32,299.0,54.0,1,1,1,37.809475
Status,1715780171000,48,11,1,10,1575420030,48.43,27.0,54.0,1,1,1,44.916107
Status,1715780171000,48,12,1,8,1176450050,29.87,299.0,54.0,1,1,1,25.860176
Status,1715780171000,48,13,1,10,1176450050,23.94,27.0,54.0,0,1,1,19.928009
Status,1715780171000,48,14,5,30,1561097980,47.91,321.0,54.0,1,1,1,44.401077
Status,1715780171000,48,15,5,30,1176450050,21.33,321.0,54.0,0,1,1,17.324236
Status,1715780171000,48,16,6,5,1575420030,42.63,152.0,54.0,1,1,1,39.11505
Status,1715780171000,48,17,6,36,1575420030,46.62,61.0,54.0,1,1,1,43.111084
Status,1715780171000,48,18,6,5,1176450050,28.61,152.0,54.0,1,1,1,24.596966
Status,1715780171000,48,19,6,36,1176450050,21.98,61.0,54.0,1,1,1,17.96558
Status,1715780171000,48,20,7,6,1176450050,27.08,185.0,52.0,1,1,1,23.570171
Status,1715780171000,48,21,3,19,1603687550,31.74,90.0,50.0,1,1,1,28.226753
Status,1715780171000,48,22,3,4,1605374980,44.82,32.0,49.0,1,1,1,41.31453
Status,1715780171000,48,23,6,34,1575420030,39.89,327.0,48.0,1,1,1,36.377605
Status,1715780171000,48,24,6,34,1176450050,34.84,327.0,48.0,1,1,1,30.833857
Status,1715780171000,48,25,5,41,1561097980,46.30,41.0,45.0,1,1,1,42.791798
Status,1715780171000,48,26,5,41,1176450050,26.45,41.0,45.0,1,1,1,22.440187
Status,1715780171000,48,27,3,20,1603124990,30.01,342.0,43.0,1,1,1,26.496382
Status,1715780171000,48,28,6,9,1575420030,42.44,62.0,43.0,1,1,1,38.926125
Status,1715780171000,48,29,6,9,1176450050,25.75,62.0,43.0,1,1,1,21.738607
Status,1715780171000,48,30,7,3,1176450050,22.94,112.0,29.0,0,1,1,19.428108
Status,1715780171000,48,31,1,21,1575420030,39.32,309.0,27.0,1,1,1,35.812874
Status,1715780171000,48,32,1,23,1575420030,28.41,48.0,22.0,0,1,1,24.900202
Status,1715780171000,48,33,1,23,1176450050,17.25,48.0,22.0,0,1,1,13.239795
Status,1715780171000,48,34,5,28,1561097980,34.36,128.0,22.0,1,1,1,30.854351
Status,1715780171000,48,35,5,28,1176450050,22.61,128.0,22.0,0,1,1,18.60031
Status,1715780171000,48,36,5,13,1561097980,31.09,55.0,20.0,0,1,1,27.579044
Status,1715780171000,48,37,5,39,1561097980,43.71,79.0,20.0,1,1,1,40.199482
Status,1715780171000,48,38,5,39,1176450050,28.47,79.0,20.0,1,1,1,24.459969
Status,1715780171000,48,39,6,30,1575420030,35.98,273.0,20.0,1,1,1,32.473892
Status,1715780171000,48,40,6,30,1176450050,23.81,273.0,20.0,0,1,1,19.795609
Status,1715780171000,48,41,5,6,1561097980,26.87,93.0,19.0,1,1,1,23.362051
Status,1715780171000,48,42,5,20,1561097980,42.31,221.0,19.0,1,1,1,38.796753
Status,1715780171000,48,43,5,20,1176450050,23.40,221.0,19.0,0,1,1,19.388586
Status,1715780171000,48,44,5,16,1561097980,28.48,86.0,18.0,1,1,1,24.966526
Status,1715780171000,48,45,5,9,1561097980,24.41,105.0,17.0,0,1,1,20.901194
Status,1715780171000,48,46,1,16,1575420030,38.99,215.0,16.0,1,1,1,35.480263
Status,1715780171000,48,47,6,2,1575420030,37.24,220.0,16.0,1,1,1,33.730495
Status,1715780171000,48,0,5,32,1561097980,43.96,222.0,76.0,1,1,1,40.448296
Status,1715780171000,48,1,5,32,1176450050,21.13,222.0,76.0,0,1,1,17.115139
Status,1715780171000,48,2,3,5,1602562560,47.02,196.0,75.0,1,1,1,43.513138
Status,1715780171000,48,3,1,27,1575420030,47.34,214.0,72.0,1,1,1,43.833267
Status,1715780171000,48,4,1,27,1176450050,31.03,214.0,72.0,1,1,1,27.020065
Status,1715780171000,48,5,5,27,1561097980,44.81,112.0,69.0,1,1,1,41.30172
Status,1715780171000,48,6,5,27,1176450050,27.54,112.0,69.0,1,1,1,23.528345
Status,1715780171000,48,7,7,9,1176450050,26.63,125.0,69.0,1,1,1,23.119144
Status,1715780171000,48,8,1,32,1575420030,46.30,118.0,61.0,1,1,1,42.78527
Status,1715780171000,48,9,1,32,1176450050,30.08,118.0,61.0,1,1,1,26.068151
Status,1715780171000,48,10,1,8,1575420030,41.32,299.0,54.0,1,1,1,37.809475
Status,1715780171000,48,11,1,10,1575420030,48.43,27.0,54.0,1,1,1,44.916107
Status,1715780171000,48,12,1,8,1176450050,29.87,299.0,54.0,1,1,1,25.860176
Status,1715780171000,48,13,1,10,1176450050,23.94,27.0,54.0,0,1,1,19.928009
Status,1715780171000,48,14,5,30,1561097980,47.91,321.0,54.0,1,1,1,44.401077
Status,1715780171000,48,15,5,30,1176450050,21.33,321.0,54.0,0,1,1,17.324236
Status,1715780171000,48,16,6,5,1575420030,42.63,152.0,54.0,1,1,1,39.11505
Status,1715780171000,48,17,6,36,1575420030,46.62,61.0,54.0,1,1,1,43.111084
Status,1715780171000,48,18,6,5,1176450050,28.61,152.0,54.0,1,1,1,24.596966
Status,1715780171000,48,19,6,36,1176450050,21.98,61.0,54.0,1,1,1,17.96558
Status,1715780171000,48,20,7,6,1176450050,27.08,185.0,52.0,1,1,1,23.570171
Status,1715780171000,48,21,3,19,1603687550,31.74,90.0,50.0,1,1,1,28.226753
Status,1715780171000,48,22,3,4,1605374980,44.82,32.0,49.0,1,1,1,41.31453
Status,1715780171000,48,23,6,34,1575420030,39.89,327.0,48.0,1,1,1,36.377605
Status,1715780171000,48,24,6,34,1176450050,34.84,327.0,48.0,1,1,1,30.833857
Status,1715780171000,48,25,5,41,1561097980,46.30,41.0,45.0,1,1,1,42.791798
Status,1715780171000,48,26,5,41,1176450050,26.45,41.0,45.0,1,1,1,22.440187
Status,1715780171000,48,27,3,20,1603124990,30.01,342.0,43.0,1,1,1,26.496382
Status,1715780171000,48,28,6,9,1575420030,42.44,62.0,43.0,1,1,1,38.926125
Status,1715780171000,48,29,6,9,1176450050,25.75,62.0,43.0,1,1,1,21.738607
Status,1715780171000,48,30,7,3,1176450050,22.94,112.0,29.0,0,1,1,19.428108
Status,1715780171000,48,31,1,21,1575420030,39.32,309.0,27.0,1,1,1,35.812874
Status,1715780171000,48,32,1,23,1575420030,28.41,48.0,22.0,0,1,1,24.900202
Status,1715780171000,48,33,1,23,1176450050,17.25,48.0,22.0,0,1,1,13.239795
Status,1715780171000,48,34,5,28,1561097980,34.36,128.0,22.0,1,1,1,30.854351
Status,1715780171000,48,35,5,28,1176450050,22.61,128.0,22.0,0,1,1,18.60031
Status,1715780171000,48,36,5,13,1561097980,31.09,55.0,20.0,0,1,1,27.579044
Status,1715780171000,48,37,5,39,1561097980,43.71,79.0,20.0,1,1,1,40.199482
Status,1715780171000,48,38,5,39,1176450050,28.47,79.0,20.0,1,1,1,24.459969
Status,1715780171000,48,39,6,30,1575420030,35.98,273.0,20.0,1,1,1,32.473892
Status,1715780171000,48,40,6,30,1176450050,23.81,273.0,20.0,0,1,1,19.795609
Status,1715780171000,48,41,5,6,1561097980,26.87,93.0,19.0,1,1,1,23.362051
Status,1715780171000,48,42,5,20,1561097980,42.31,221.0,19.0,1,1,1,38.796753
Status,1715780171000,48,43,5,20,1176450050,23.40,221.0,19.0,0,1,1,19.388586
Status,1715780171000,48,44,5,16,1561097980,28.48,86.0,18.0,1,1,1,24.966526
Status,1715780171000,48,45,5,9,1561097980,24.41,105.0,17.0,0,1,1,20.901194
