# 
# Header Description:
# 
# Version: v3.0.6.4 Platform: 14 Manufacturer: Google Model: Pixel 8 Pro
# 
# Raw,utcTimeMillis,TimeNanos,LeapSecond,TimeUncertaintyNanos,FullBiasNanos,BiasNanos,BiasUncertaintyNanos,DriftNanosPerSecond,DriftUncertaintyNanosPerSecond,HardwareClockDiscontinuityCount,Svid,TimeOffsetNanos,State,ReceivedSvTimeNanos,ReceivedSvTimeUncertaintyNanos,Cn0DbHz,PseudorangeRateMetersPerSecond,PseudorangeRateUncertaintyMetersPerSecond,AccumulatedDeltaRangeState,AccumulatedDeltaRangeMeters,AccumulatedDeltaRangeUncertaintyMeters,CarrierFrequencyHz,CarrierCycles,CarrierPhase,CarrierPhaseUncertainty,MultipathIndicator,SnrInDb,ConstellationType,AgcDb,BasebandCn0DbHz,FullInterSignalBiasNanos,FullInterSignalBiasUncertaintyNanos,SatelliteInterSignalBiasNanos,SatelliteInterSignalBiasUncertaintyNanos,CodeType,ChipsetElapsedRealtimeNanos
# 
# UncalAccel,utcTimeMillis,elapsedRealtimeNanos,UncalAccelXMps2,UncalAccelYMps2,UncalAccelZMps2,BiasXMps2,BiasYMps2,BiasZMps2
# 
# Accel,utcTimeMillis,elapsedRealtimeNanos,AccelXMps2,AccelYMps2,AccelZMps2
# 
# UncalGyro,utcTimeMillis,elapsedRealtimeNanos,UncalGyroXRadPerSec,UncalGyroYRadPerSec,UncalGyroZRadPerSec,DriftXRadPerSec,DriftYRadPerSec,DriftZRadPerSec
# 
# Gyro,utcTimeMillis,elapsedRealtimeNanos,GyroXRadPerSec,GyroYRadPerSec,GyroZRadPerSec
# 
# UncalMag,utcTimeMillis,elapsedRealtimeNanos,UncalMagXMicroT,UncalMagYMicroT,UncalMagZMicroT,BiasXMicroT,BiasYMicroT,BiasZMicroT
# 
# Mag,utcTimeMillis,elapsedRealtimeNanos,MagXMicroT,MagYMicroT,MagZMicroT
# 
# OrientationDeg,utcTimeMillis,elapsedRealtimeNanos,yawDeg,rollDeg,pitchDeg
# 
# Fix,Provider,LatitudeDegrees,LongitudeDegrees,AltitudeMeters,SpeedMps,AccuracyMeters,BearingDegrees,UnixTimeMillis,SpeedAccuracyMps,BearingAccuracyDegrees,elapsedRealtimeNanos,VerticalAccuracyMeters,MockLocation,NumberOfUsedSignals,VerticalSpeedAccuracyMps,SolutionType
# 
# Nav,Svid,Type,Status,MessageId,Sub-messageId,Data(Bytes)
# 
# Status,UnixTimeMillis,SignalCount,SignalIndex,ConstellationType,Svid,CarrierFrequencyHz,Cn0DbHz,AzimuthDegrees,ElevationDegrees,UsedInFix,HasAlmanacData,HasEphemerisData,BasebandCn0DbHz
# 
# Agc,utcTimeMillis,TimeNanos,LeapSecond,TimeUncertaintyNanos,FullBiasNanos,BiasNanos,BiasUncertaintyNanos,DriftNanosPerSecond,DriftUncertaintyNanosPerSecond,HardwareClockDiscontinuityCount,AgcDb,CarrierFrequencyHz,ConstellationType
# 
Fix,FLP,32.1026298000,35.2096464000,703.2000122070312,0.09262584,10.233,,1714920463758,0.19376165,,75925566839491,2.9262307,0,,,
Status,,48,0,5,44,1561097980,39.35,302.0,88.0,1,1,1,35.841022
Status,,48,1,5,44,1176450050,35.08,302.0,88.0,1,1,1,31.074503
Status,,48,2,3,3,1604812540,44.93,271.0,84.0,1,1,1,41.417305
Status,,48,3,7,9,1176450050,32.79,118.0,70.0,1,1,1,29.283955
Status,,48,4,5,22,1561097980,42.33,32.0,66.0,1,1,1,38.820873
Status,,48,5,5,22,1176450050,33.42,32.0,66.0,1,1,1,29.406164
Status,,48,6,6,5,1575420030,39.31,139.0,65.0,1,1,1,35.79533
Status,,48,7,6,5,1176450050,32.91,139.0,65.0,1,1,1,28.900543
Status,,48,8,1,32,1575420030,42.65,86.0,63.0,1,1,1,39.136642
Status,,48,9,1,32,1176450050,37.38,86.0,63.0,1,1,1,33.365498
Status,,48,10,5,12,1561097980,37.89,323.0,61.0,1,1,1,34.383488
Status,,48,11,1,27,1575420030,41.83,195.0,58.0,1,1,1,38.321182
Status,,48,12,1,27,1176450050,38.55,195.0,58.0,1,1,1,34.543713
Status,,48,13,3,18,1600312450,45.88,356.0,58.0,1,1,1,42.36868
Status,,48,14,6,34,1575420030,40.90,339.0,56.0,1,1,1,37.387016
Status,,48,15,6,34,1176450050,32.28,339.0,56.0,1,1,1,28.27231
Status,,48,16,3,17,1604249980,45.01,106.0,55.0,1,1,1,41.502
Status,,48,17,5,21,1561097980,41.28,234.0,55.0,1,1,1,37.768078
Status,,48,18,5,21,1176450050,37.51,234.0,55.0,1,1,1,33.502914
Status,,48,19,7,6,1176450050,35.67,185.0,52.0,1,1,1,32.164284
Status,,48,20,6,36,1575420030,41.72,80.0,50.0,1,1,1,38.208115
Status,,48,21,6,36,1176450050,37.36,80.0,50.0,0,1,1,33.353134
Status,,48,22,1,10,1575420030,41.56,38.0,43.0,1,1,1,38.0549
Status,,48,23,1,10,1176450050,33.90,38.0,43.0,1,1,1,29.889008
Status,,48,24,6,9,1575420030,39.36,51.0,37.0,1,1,1,35.84936
Status,,48,25,6,9,1176450050,32.07,51.0,37.0,1,1,1,28.055439
Status,,48,26,5,34,1561097980,38.44,317.0,31.0,1,1,1,34.92945
Status,,48,27,5,34,1176450050,28.27,317.0,31.0,0,1,1,24.257353
Status,,48,28,7,3,1176450050,27.51,112.0,30.0,1,1,1,23.997547
Status,,48,29,5,6,1561097980,33.72,90.0,25.0,0,1,1,30.214025
Status,,48,30,5,39,1561097980,35.74,72.0,25.0,1,1,1,32.230682
Status,,48,31,5,39,1176450050,20.88,72.0,25.0,0,1,1,16.866089
Status,,48,32,6,3,1575420030,42.84,196.0,25.0,1,1,1,39.328228
Status,,48,33,6,3,1176450050,33.94,196.0,25.0,1,1,1,29.930798
Status,,48,34,5,9,1561097980,23.93,101.0,24.0,1,1,1,20.421532
Status,,48,35,5,16,1561097980,38.47,80.0,24.0,1,1,1,34.957123
Status,,48,36,5,13,1561097980,36.59,62.0,19.0,1,1,1,33.082138
Status,,48,37,5,19,1561097980,30.88,43.0,14.0,1,1,1,27.368477
Status,,48,38,5,19,1176450050,18.83,43.0,14.0,0,1,1,14.818312
Status,,48,39,6,30,1575420030,31.52,262.0,14.0,1,1,1,28.00992
Status,,48,40,6,30,1176450050,26.92,262.0,14.0,1,1,1,22.908703
Status,,48,41,6,15,1575420030,26.51,305.0,12.0,0,1,1,23.000317
Status,,48,42,6,15,1176450050,17.36,305.0,12.0,0,1,1,13.349747
Status,,48,43,1,28,1575420030,36.25,138.0,9.0,1,1,1,32.74334
Status,,48,44,1,28,1176450050,26.73,138.0,9.0,0,1,1,22.716772
Status,,48,45,5,11,1561097980,27.46,318.0,8.0,1,1,1,23.950863
Status,,48,46,6,2,1575420030,31.75,213.0,8.0,1,1,1,28.235023
Status,,48,47,6,2,1176450050,24.28,213.0,8.0,1,1,1,20.274027
Raw,1714920463999,279864000000,,,-1398955402135871073,0.0,6.714001893982265,100.0,1.0,23,10,0.0,16431,53281926525697,19,37.854148864746094,398.0931805935561,0.15,16,110860.58820055831,340282346638528860000000000000000000000,1575420030,,,,2,,1,30.797578811645508,34.34415054321289,-3.143213708743226,1.0,-3.143213708743226,1.0,C,75926613185480
Raw,1714920463999,279864000000,,,-1398955402135871073,0.0,6.714001893982265,100.0,1.0,23,27,0.0,16431,53281929387371,16,40.11100387573242,445.227207099668,0.15,16,121137.3326618466,340282346638528860000000000000000000000,1575420030,,,,2,,1,30.797578811645508,36.60100555419922,-2.7648638073768854,1.0,-2.7648638073768854,1.0,C,75926613185480
Raw,1714920463999,279864000000,,,-1398955402135871073,0.0,6.714001893982265,100.0,1.0,23,28,0.0,16419,53281917059749,30,32.23590087890625,-456.58961645524255,0.6599481913420746,16,-97479.74549360471,340282346638528860000000000000000000000,1575420030,,,,1,,1,30.797578811645508,28.725902557373047,8.963979953864575,1.0,8.963979953864575,1.0,C,75926613185480
Raw,1714920463999,279864000000,,,-1398955402135871073,0.0,6.714001893982265,100.0,1.0,23,32,0.0,16431,53281929527187,15,40.90639114379883,90.19399805115557,0.15,16,21091.418399743834,340282346638528860000000000000000000000,1575420030,,,,2,,1,30.797578811645508,37.396392822265625,-1.222360875687938,1.0,-1.222360875687938,1.0,C,75926613185480
Raw,1714920463999,279864000000,,,-1398955402135871073,0.0,6.714001893982265,100.0,1.0,23,10,0.0,81921,53281926525630,6,31.207748413085938,398.03336588235857,0.7267727718445571,16,113165.01226753529,340282346638528860000000000000000000000,1176450050,,,,2,,1,24.78910255432129,27.1977481842041,8.55655704627799,3.2355699942945377,8.55655704627799,1.0,Q,75926613185480
Raw,1714920463999,279864000000,,,-1398955402135871073,0.0,6.714001893982265,100.0,1.0,23,27,0.0,81921,53281929387318,6,36.34973907470703,445.4294864791309,0.15,16,123521.15136580754,340282346638528860000000000000000000000,1176450050,,,,2,,1,24.78910255432129,32.33974075317383,3.900008149650271,3.2355699942945377,3.900008149650271,1.0,Q,75926613185480
Raw,1714920463999,279864000000,,,-1398955402135871073,0.0,6.714001893982265,100.0,1.0,23,28,0.0,81921,53281917059637,6,24.33599281311035,-456.0475009017907,1.0376827256384242,16,-94821.41080030627,340282346638528860000000000000000000000,1176450050,,,,2,,1,24.78910255432129,20.325992584228516,9.3132258331384,3.2355699942945377,9.3132258331384,1.0,Q,75926613185480
Raw,1714920463999,279864000000,,,-1398955402135871073,0.0,6.714001893982265,100.0,1.0,23,32,0.0,81921,53281929527126,6,32.62040710449219,90.15862898189903,0.6637869942771477,16,23677.365915651226,340282346638528860000000000000000000000,1176450050,,,,2,,1,24.78910255432129,28.61040687561035,8.381787377706875,3.2355699942945377,8.381787377706875,1.0,Q,75926613185480
Raw,1714920463999,279864000000,,,-1398955402135871073,0.0,6.714001893982265,100.0,1.0,23,18,0.0,32995,64063933681632,33,42.99784851074219,-341.72788665578446,0.15,16,-98695.07565166977,340282346638528860000000000000000000000,1600312450,,,,2,,3,47.91270446777344,39.487850189208984,24.38901218470518,2.0000000474974513,24.38901218470518,2.0000000474974513,C,75926613185480
Raw,1714920463999,279864000000,,,-1398955402135871073,0.0,6.714001893982265,100.0,1.0,23,17,0.0,32995,64063933199788,33,45.01199722290039,275.9413326324667,0.15,16,73355.86244393943,340282346638528860000000000000000000000,1604249980,,,,2,,3,47.91270446777344,41.50199890136719,15.832483768463135,2.0000000474974513,15.832483768463135,2.0000000474974513,C,75926613185480
Raw,1714920463999,279864000000,,,-1398955402135871073,0.0,6.714001893982265,100.0,1.0,23,3,0.0,32995,64063935894120,33,40.581783294677734,23.63908486768051,0.15,16,1279.545418933846,340282346638528860000000000000000000000,1604812540,,,,2,,3,47.91270446777344,37.07178497314453,11.554220355620886,2.0000000474974513,11.554220355620886,2.0000000474974513,C,75926613185480
Raw,1714920463999,279864000000,,,-1398955402135871073,0.0,6.714001893982265,100.0,1.0,23,6,0.0,81967,53267869337166,13,33.72402572631836,-254.32514806709162,0.5916398923367856,16,-64487.349348622425,340282346638528860000000000000000000000,1561097980,,,,2,,5,48.42378616333008,30.214025497436523,7.739937394025125,4.8356409757302465,7.739937394025125,1.5000000237487257,I,75926613185480
Raw,1714920463999,279864000000,,,-1398955402135871073,0.0,6.714001893982265,100.0,1.0,23,9,0.0,81955,53267867001786,30,23.779775619506836,-276.9241513899867,1.0384015193211065,16,-60519.60799289606,340282346638528860000000000000000000000,1561097980,,,,2,,5,48.42378616333008,20.269775390625,9.33993729126336,4.8356409757302465,9.33993729126336,1.5000000237487257,I,75926613185480
Raw,1714920463999,279864000000,,,-1398955402135871073,0.0,6.714001893982265,100.0,1.0,23,11,0.0,81955,53267912641179,23,27.138235092163086,-554.8006347801338,0.8883897836567871,16,-115026.72201095545,340282346638528860000000000000000000000,1561097980,,,,2,,5,48.42378616333008,23.62823486328125,11.939937422505032,4.8356409757302465,11.939937422505032,1.5000000237487257,I,75926613185480
Raw,1714920463999,279864000000,,,-1398955402135871073,0.0,6.714001893982265,100.0,1.0,23,12,0.0,81967,53267925650786,10,36.573829650878906,-270.09378852561986,0.15,16,-76996.91977321183,340282346638528860000000000000000000000,1561097980,,,,2,,5,48.42378616333008,33.0638313293457,12.939937457688776,4.8356409757302465,12.939937457688776,1.5000000237487257,I,75926613185480
Raw,1714920463999,279864000000,,,-1398955402135871073,0.0,6.714001893982265,100.0,1.0,23,13,0.0,81967,53267868084531,10,36.59213638305664,70.74309325020997,0.15,16,19600.97310476592,340282346638528860000000000000000000000,1561097980,,,,2,,5,48.42378616333008,33.08213806152344,26.33993729292792,4.8356409757302465,26.33993729292792,1.5000000237487257,I,75926613185480
Raw,1714920463999,279864000000,,,-1398955402135871073,0.0,6.714001893982265,100.0,1.0,23,16,0.0,81967,53267867648696,9,38.46712112426758,-212.62916495270497,0.15,16,-56902.70525600521,340282346638528860000000000000000000000,1561097980,,,,2,,5,48.42378616333008,34.957122802734375,19.43993738815357,4.8356409757302465,19.43993738815357,1.5000000237487257,I,75926613185480
Raw,1714920463999,279864000000,,,-1398955402135871073,0.0,6.714001893982265,100.0,1.0,23,19,0.0,81967,53267913141805,17,30.545873641967773,603.1277176768267,0.7352421957231776,16,160638.26145582896,340282346638528860000000000000000000000,1561097980,,,,2,,5,48.42378616333008,27.035873413085938,6.93993704776662,4.8356409757302465,6.93993704776662,1.5000000237487257,I,75926613185480
Raw,1714920463999,279864000000,,,-1398955402135871073,0.0,6.714001893982265,100.0,1.0,23,21,0.0,81967,53267924155066,7,41.278076171875,-267.7674734144272,0.15,16,710203.8811219978,340282346638528860000000000000000000000,1561097980,,,,2,,5,48.42378616333008,37.7680778503418,5.43993709440085,4.8356409757302465,5.43993709440085,1.5000000237487257,I,75926613185480
Raw,1714920463999,279864000000,,,-1398955402135871073,0.0,6.714001893982265,100.0,1.0,23,22,0.0,81967,53267926652858,6,42.33087158203125,286.36673005208786,0.15,16,338830.87162482966,340282346638528860000000000000000000000,1561097980,,,,2,,5,48.42378616333008,38.82087326049805,3.039937646182887,4.8356409757302465,3.039937646182887,1.5000000237487257,I,75926613185480
Raw,1714920463999,279864000000,,,-1398955402135871073,0.0,6.714001893982265,100.0,1.0,23,34,0.0,81967,53267919924104,9,38.439449310302734,-480.02484989015306,0.15,16,-129099.4808994024,340282346638528860000000000000000000000,1561097980,,,,1,,5,48.42378616333008,34.92945098876953,22.53993743757727,4.8356409757302465,22.53993743757727,1.5000000237487257,I,75926613185480
Raw,1714920463999,279864000000,,,-1398955402135871073,0.0,6.714001893982265,100.0,1.0,23,39,0.0,81967,53267868913549,11,35.74068069458008,-167.06547058965327,0.5008768794196368,16,-45371.882353366535,340282346638528860000000000000000000000,1561097980,,,,2,,5,48.42378616333008,32.230682373046875,9.739937464392613,4.8356409757302465,9.739937464392613,1.5000000237487257,I,75926613185480
Raw,1714920463999,279864000000,,,-1398955402135871073,0.0,6.714001893982265,100.0,1.0,23,44,0.0,81967,53267928487424,10,36.938419342041016,11.636148995598077,0.15,16,190.48276877818327,340282346638528860000000000000000000000,1561097980,,,,2,,5,48.42378616333008,33.42842102050781,17.739937348223176,4.8356409757302465,17.739937348223176,1.5000000237487257,I,75926613185480
Raw,1714920463999,279864000000,,,-1398955402135871073,0.0,6.714001893982265,100.0,1.0,23,19,0.0,16418,53267913141751,1000000000,17.97536277770996,602.9751646014306,299792458,16,129689.49713944177,340282346638528860000000000000000000000,1176450050,,,,1,,5,24.78910255432129,13.965362548828125,22.060703639978755,3.7355700180432634,22.060703639978755,1.5000000237487257,Q,75926613185480
Raw,1714920463999,279864000000,,,-1398955402135871073,0.0,6.714001893982265,100.0,1.0,23,21,0.0,81959,53267924155030,6,33.042579650878906,-268.3482555148041,0.6474335393376052,16,-65087.56908291165,340282346638528860000000000000000000000,1176450050,,,,2,,5,24.78910255432129,29.032581329345703,23.05023402889399,3.7355700180432634,23.05023402889399,1.5000000237487257,Q,75926613185480
Raw,1714920463999,279864000000,,,-1398955402135871073,0.0,6.714001893982265,100.0,1.0,23,22,0.0,81959,53267926652819,6,29.506799697875977,286.72128984729466,0.8068828536611461,16,79880.2402481129,340282346638528860000000000000000000000,1176450050,,,,2,,5,24.78910255432129,25.49679946899414,27.2411853754587,3.7355700180432634,27.2411853754587,1.5000000237487257,Q,75926613185480
Raw,1714920463999,279864000000,,,-1398955402135871073,0.0,6.714001893982265,100.0,1.0,23,34,0.0,81959,53267919924030,6,28.267353057861328,-479.74165875890503,0.8614091258773215,16,-147471.2498713153,340282346638528860000000000000000000000,1176450050,,,,1,,5,24.78910255432129,24.257352828979492,32.654497697121194,3.7355700180432634,32.654497697121194,1.5000000237487257,Q,75926613185480
Raw,1714920463999,279864000000,,,-1398955402135871073,0.0,6.714001893982265,100.0,1.0,23,39,0.0,81959,53267868913494,23,20.35353660583496,-167.1184858507745,1.2260965363533307,16,-66938.94014951857,340282346638528860000000000000000000000,1176450050,,,,2,,5,24.78910255432129,16.343536376953125,30.5008143772932,3.7355700180432634,30.5008143772932,1.5000000237487257,Q,75926613185480
Raw,1714920463999,279864000000,,,-1398955402135871073,0.0,6.714001893982265,100.0,1.0,23,44,0.0,81959,53267928487370,6,31.83355140686035,12.102176529939491,0.7025814835488324,16,12430.18663456672,340282346638528860000000000000000000000,1176450050,,,,2,,5,24.78910255432129,27.823551177978516,28.28892301328018,3.7355700180432634,28.28892301328018,1.5000000237487257,Q,75926613185480
Raw,1714920463999,279864000000,,,-1398955402135871073,0.0,6.714001893982265,100.0,1.0,23,2,0.0,85026,53281906410436,40,28.662113189697266,478.98952710835965,0.8187419509159346,16,120781.97932751346,340282346638528860000000000000000000000,1575420030,,,,2,,6,30.797578811645508,25.15211296081543,1.280568588247928,1.5000000237487257,1.280568588247928,1.5000000237487257,C,75926613185480
Raw,1714920463999,279864000000,,,-1398955402135871073,0.0,6.714001893982265,100.0,1.0,23,3,0.0,21546,53281912116415,23,35.61270523071289,-528.4937498884374,0.5057689767093201,16,-140686.77947926446,340282346638528860000000000000000000000,1575420030,,,,2,,6,30.797578811645508,32.10270690917969,-2.910383056546322,1.5000000237487257,-2.910383056546322,1.5000000237487257,C,75926613185480
Raw,1714920463999,279864000000,,,-1398955402135871073,0.0,6.714001893982265,100.0,1.0,23,5,0.0,21546,53281925588716,23,35.754573822021484,-177.70042399320494,0.499654138008232,16,-49916.47652789536,340282346638528860000000000000000000000,1575420030,,,,1,,6,30.797578811645508,32.24457550048828,-3.3760443283212727,1.5000000237487257,-3.3760443283212727,1.5000000237487257,C,75926613185480
Raw,1714920463999,279864000000,,,-1398955402135871073,0.0,6.714001893982265,100.0,1.0,23,9,0.0,21546,53281914877624,19,37.52985763549805,348.99849261105646,0.15,16,90393.15791410496,340282346638528860000000000000000000000,1575420030,,,,2,,6,30.797578811645508,34.019859313964844,-1.2805685556290713,1.5000000237487257,-1.2805685556290713,1.5000000237487257,C,75926613185480
Raw,1714920463999,279864000000,,,-1398955402135871073,0.0,6.714001893982265,100.0,1.0,23,15,0.0,85026,53281907741740,48,26.510316848754883,-368.7784507488086,0.9157452818907057,16,-81470.20564438215,340282346638528860000000000000000000000,1575420030,,,,2,,6,30.797578811645508,23.000316619873047,-5.005858829238524,1.5000000237487257,-5.005858829238524,1.5000000237487257,C,75926613185480
Raw,1714920463999,279864000000,,,-1398955402135871073,0.0,6.714001893982265,100.0,1.0,23,30,0.0,85026,53281908318500,40,28.871583938598633,368.56482191132363,0.8089460404921383,16,75475.76973622403,340282346638528860000000000000000000000,1575420030,,,,1,,6,30.797578811645508,25.361583709716797,-0.34924601207916983,1.5000000237487257,-0.34924601207916983,1.5000000237487257,C,75926613185480
Raw,1714920463999,279864000000,,,-1398955402135871073,0.0,6.714001893982265,100.0,1.0,23,34,0.0,21546,53281919298589,15,40.89701461791992,-193.32199865183725,0.15,16,-51702.03080773419,340282346638528860000000000000000000000,1575420030,,,,2,,6,30.797578811645508,37.38701629638672,-4.074536285688622,1.5000000237487257,-4.074536285688622,1.5000000237487257,C,75926613185480
Raw,1714920463999,279864000000,,,-1398955402135871073,0.0,6.714001893982265,100.0,1.0,23,36,0.0,21546,53281918099475,14,41.71811294555664,170.29430619079824,0.15,16,44522.30853928261,340282346638528860000000000000000000000,1575420030,,,,1,,6,30.797578811645508,38.20811462402344,-6.170012157790672,1.5000000237487257,-6.170012157790672,1.5000000237487257,C,75926613185480
Raw,1714920463999,279864000000,,,-1398955402135871073,0.0,6.714001893982265,100.0,1.0,23,2,0.0,84003,53281906410407,6,21.729328155517578,479.9691591561948,1.1529858062086245,16,120525.35599393956,340282346638528860000000000000000000000,1176450050,,,,2,,6,24.78910255432129,17.719327926635742,3.681727552921539,3.7355700180432634,3.681727552921539,1.5000000237487257,Q,75926613185480
Raw,1714920463999,279864000000,,,-1398955402135871073,0.0,6.714001893982265,100.0,1.0,23,3,0.0,84003,53281912116309,6,28.419628143310547,-528.9054659632329,0.8531570442263319,16,-143081.05361706004,340282346638528860000000000000000000000,1176450050,,,,2,,6,24.78910255432129,24.40962791442871,-3.8339058040891443,3.7355700180432634,-3.8339058040891443,1.5000000237487257,Q,75926613185480
Raw,1714920463999,279864000000,,,-1398955402135871073,0.0,6.714001893982265,100.0,1.0,23,5,0.0,84003,53281925588648,6,32.910545349121094,-177.50712534103582,0.6536290243200944,16,-48911.68672091416,340282346638528860000000000000000000000,1176450050,,,,2,,6,24.78910255432129,28.900543212890625,-4.668976154999254,3.7355700180432634,-4.668976154999254,1.5000000237487257,Q,75926613185480
Raw,1714920463999,279864000000,,,-1398955402135871073,0.0,6.714001893982265,100.0,1.0,23,9,0.0,84003,53281914877540,6,28.092744827270508,349.1439224530393,0.8683532932592484,16,89643.26849401125,340282346638528860000000000000000000000,1176450050,,,,2,,6,24.78910255432129,24.082744598388672,-0.911159476493912,3.7355700180432634,-0.911159476493912,1.5000000237487257,Q,75926613185480
Raw,1714920463999,279864000000,,,-1398955402135871073,0.0,6.714001893982265,100.0,1.0,23,15,0.0,16418,53281907741713,1000000000,17.3597469329834,-368.6140369785426,299792458,16,-80009.80103465912,340282346638528860000000000000000000000,1176450050,,,,0,,6,24.78910255432129,13.349746704101562,-7.591722482594486,3.7355700180432634,-7.591722482594486,1.5000000237487257,Q,75926613185480
Raw,1714920463999,279864000000,,,-1398955402135871073,0.0,6.714001893982265,100.0,1.0,23,30,0.0,84003,53281908318465,6,26.918703079223633,368.9774241299888,0.9199687772403204,16,77064.12442792268,340282346638528860000000000000000000000,1176450050,,,,1,,6,24.78910255432129,22.908702850341797,0.7589814241460024,3.7355700180432634,0.7589814241460024,1.5000000237487257,Q,75926613185480
Raw,1714920463999,279864000000,,,-1398955402135871073,0.0,6.714001893982265,100.0,1.0,23,34,0.0,84003,53281919298519,6,32.282310485839844,-193.58172401176932,0.6807484749156734,16,-51299.89659442675,340282346638528860000000000000000000000,1176450050,,,,2,,6,24.78910255432129,28.272310256958008,-5.921581780774266,3.7355700180432634,-5.921581780774266,1.5000000237487257,Q,75926613185480
Raw,1714920463999,279864000000,,,-1398955402135871073,0.0,6.714001893982265,100.0,1.0,23,36,0.0,84003,53281918099409,6,30.33908462524414,169.8820107142418,0.767917486135762,16,43814.71029513465,340282346638528860000000000000000000000,1176450050,,,,2,,6,24.78910255432129,26.329084396362305,-9.679398856918995,3.7355700180432634,-9.679398856918995,1.5000000237487257,Q,75926613185480
Raw,1714920463999,279864000000,,,-1398955402135871073,0.0,6.714001893982265,100.0,1.0,23,3,0.0,16419,53281871463153,64,22.969263076782227,27.632807478724516,1.0756517804161971,16,7672.062799196905,340282346638528860000000000000000000000,1176450050,,,,2,,7,,19.45926284790039,-25.42576397917206,1.5000000237487257,-25.42576397917206,1.5000000237487257,C,75926613185480
Raw,1714920463999,279864000000,,,-1398955402135871073,0.0,6.714001893982265,100.0,1.0,23,6,0.0,16431,53281876997515,23,35.67428207397461,13.829940865062412,0.5053169514729565,16,4226.737299550982,340282346638528860000000000000000000000,1176450050,,,,2,,7,,32.164283752441406,-23.336328448194678,1.5000000237487257,-23.336328448194678,1.5000000237487257,C,75926613185480
Raw,1714920463999,279864000000,,,-1398955402135871073,0.0,6.714001893982265,100.0,1.0,23,9,0.0,16419,53281879647548,36,29.995424270629883,2.427448676732718,0.7611655651101592,16,743.8196907451677,340282346638528860000000000000000000000,1176450050,,,,1,,7,,26.485424041748047,-23.336328448194678,1.5000000237487257,-23.336328448194678,1.5000000237487257,C,75926613185480
Agc,1714920463999,279864000000,,,-1398955402135871073,0.0,6.714001893982265,100.0,1.0,23,33.20142364501953,1575420000,1
Agc,1714920463999,279864000000,,,-1398955402135871073,0.0,6.714001893982265,100.0,1.0,23,28.13314437866211,1176450000,1
Agc,1714920463999,279864000000,,,-1398955402135871073,0.0,6.714001893982265,100.0,1.0,23,48.66847610473633,1602000000,3
Agc,1714920463999,279864000000,,,-1398955402135871073,0.0,6.714001893982265,100.0,1.0,23,33.20142364501953,1575420000,6
Agc,1714920463999,279864000000,,,-1398955402135871073,0.0,6.714001893982265,100.0,1.0,23,28.13314437866211,1176450000,6
Agc,1714920463999,279864000000,,,-1398955402135871073,0.0,6.714001893982265,100.0,1.0,23,49.36371994018555,1561096000,5
Agc,1714920463999,279864000000,,,-1398955402135871073,0.0,6.714001893982265,100.0,1.0,23,33.20142364501953,1575420000,5
Agc,1714920463999,279864000000,,,-1398955402135871073,0.0,6.714001893982265,100.0,1.0,23,28.13314437866211,1176450000,5
Status,,48,0,5,44,1561097980,39.35,302.0,88.0,1,1,1,35.841022
Status,,48,1,5,44,1176450050,35.08,302.0,88.0,1,1,1,31.074503
Status,,48,2,3,3,1604812540,44.93,271.0,84.0,1,1,1,41.417305
Status,,48,3,7,9,1176450050,32.79,118.0,70.0,1,1,1,29.283955
Status,,48,4,5,22,1561097980,42.33,32.0,66.0,1,1,1,38.820873
Status,,48,5,5,22,1176450050,33.42,32.0,66.0,1,1,1,29.406164
Status,,48,6,6,5,1575420030,39.31,139.0,65.0,1,1,1,35.79533
Status,,48,7,6,5,1176450050,32.91,139.0,65.0,1,1,1,28.900543
Status,,48,8,1,32,1575420030,42.65,86.0,63.0,1,1,1,39.136642
Status,,48,9,1,32,1176450050,37.38,86.0,63.0,1,1,1,33.365498
Status,,48,10,5,12,1561097980,37.89,323.0,61.0,1,1,1,34.383488
Status,,48,11,1,27,1575420030,41.83,195.0,58.0,1,1,1,38.321182
Status,,48,12,1,27,1176450050,38.55,195.0,58.0,1,1,1,34.543713
Status,,48,13,3,18,1600312450,45.88,356.0,58.0,1,1,1,42.36868
Status,,48,14,6,34,1575420030,40.90,339.0,56.0,1,1,1,37.387016
Status,,48,15,6,34,1176450050,32.28,339.0,56.0,1,1,1,28.27231
Status,,48,16,3,17,1604249980,45.01,106.0,55.0,1,1,1,41.502
Status,,48,17,5,21,1561097980,41.28,234.0,55.0,1,1,1,37.768078
Status,,48,18,5,21,1176450050,37.51,234.0,55.0,1,1,1,33.502914
Status,,48,19,7,6,1176450050,35.67,185.0,52.0,1,1,1,32.164284
Status,,48,20,6,36,1575420030,41.72,80.0,50.0,1,1,1,38.208115
Status,,48,21,6,36,1176450050,37.36,80.0,50.0,0,1,1,33.353134
Status,,48,22,1,10,1575420030,41.56,38.0,43.0,1,1,1,38.0549
Status,,48,23,1,10,1176450050,33.90,38.0,43.0,1,1,1,29.889008
Status,,48,24,6,9,1575420030,39.36,51.0,37.0,1,1,1,35.84936
Status,,48,25,6,9,1176450050,32.07,51.0,37.0,1,1,1,28.055439
Status,,48,26,5,34,1561097980,38.44,317.0,31.0,1,1,1,34.92945
Status,,48,27,5,34,1176450050,28.27,317.0,31.0,0,1,1,24.257353
Status,,48,28,7,3,1176450050,27.51,112.0,30.0,1,1,1,23.997547
Status,,48,29,5,6,1561097980,33.72,90.0,25.0,0,1,1,30.214025
Status,,48,30,5,39,1561097980,35.74,72.0,25.0,1,1,1,32.230682
Status,,48,31,5,39,1176450050,20.88,72.0,25.0,0,1,1,16.866089
Status,,48,32,6,3,1575420030,42.84,196.0,25.0,1,1,1,39.328228
Status,,48,33,6,3,1176450050,33.94,196.0,25.0,1,1,1,29.930798
Status,,48,34,5,9,1561097980,23.93,101.0,24.0,1,1,1,20.421532
Status,,48,35,5,16,1561097980,38.47,80.0,24.0,1,1,1,34.957123
Status,,48,36,5,13,1561097980,36.59,62.0,19.0,1,1,1,33.082138
Status,,48,37,5,19,1561097980,30.88,43.0,14.0,1,1,1,27.368477
Status,,48,38,5,19,1176450050,18.83,43.0,14.0,0,1,1,14.818312
Status,,48,39,6,30,1575420030,31.52,262.0,14.0,1,1,1,28.00992
Status,,48,40,6,30,1176450050,26.92,262.0,14.0,1,1,1,22.908703
Status,,48,41,6,15,1575420030,26.51,305.0,12.0,0,1,1,23.000317
Status,,48,42,6,15,1176450050,17.36,305.0,12.0,0,1,1,13.349747
Status,,48,43,1,28,1575420030,36.25,138.0,9.0,1,1,1,32.74334
Status,,48,44,1,28,1176450050,26.73,138.0,9.0,0,1,1,22.716772
Status,,48,45,5,11,1561097980,27.46,318.0,8.0,1,1,1,23.950863
Status,,48,46,6,2,1575420030,31.75,213.0,8.0,1,1,1,28.235023
Status,,48,47,6,2,1176450050,24.28,213.0,8.0,1,1,1,20.274027
Fix,GPS,32.1026255941,35.2096540876,699.0048346325466,0.23434502,2.8468914,138.80435,1714920463999,0.15593377,22.067625,75926563919122,3.0,0,,,
Fix,FLP,32.1026269000,35.2096518000,703.2000122070312,0.2264368,10.233,137.87282,1714920464755,0.15593377,22.067625,75926563919122,2.9358463,0,,,
Status,1714920463999,48,0,5,44,1561097980,44.74,302.0,88.0,1,1,1,41.227333
Status,1714920463999,48,1,5,44,1176450050,34.93,302.0,88.0,1,1,1,30.920357
Status,1714920463999,48,2,3,3,1604812540,44.28,271.0,84.0,1,1,1,40.765617
Status,1714920463999,48,3,7,9,1176450050,32.54,118.0,70.0,1,1,1,29.027277
Status,1714920463999,48,4,5,22,1561097980,42.09,32.0,66.0,1,1,1,38.584396
Status,1714920463999,48,5,5,22,1176450050,32.62,32.0,66.0,1,1,1,28.611544
Status,1714920463999,48,6,6,5,1575420030,39.58,139.0,65.0,1,1,1,36.06637
Status,1714920463999,48,7,6,5,1176450050,33.59,139.0,65.0,1,1,1,29.576044
Status,1714920463999,48,8,1,32,1575420030,42.31,86.0,63.0,1,1,1,38.798378
Status,1714920463999,48,9,1,32,1176450050,36.53,86.0,63.0,1,1,1,32.51854
Status,1714920463999,48,10,5,12,1561097980,40.93,323.0,61.0,1,1,1,37.4218
Status,1714920463999,48,11,1,27,1575420030,41.67,195.0,58.0,1,1,1,38.16255
Status,1714920463999,48,12,1,27,1176450050,38.51,195.0,58.0,1,1,1,34.499886
Status,1714920463999,48,13,3,18,1600312450,45.81,356.0,58.0,1,1,1,42.296337
Status,1714920463999,48,14,6,34,1575420030,40.22,339.0,56.0,0,1,1,36.71491
Status,1714920463999,48,15,6,34,1176450050,32.57,339.0,56.0,1,1,1,28.558193
Status,1714920463999,48,16,3,17,1604249980,44.94,106.0,55.0,1,1,1,41.425854
Status,1714920463999,48,17,5,21,1561097980,40.86,234.0,55.0,1,1,1,37.346233
Status,1714920463999,48,18,5,21,1176450050,36.91,234.0,55.0,1,1,1,32.89834
Status,1714920463999,48,19,7,6,1176450050,35.30,185.0,52.0,1,1,1,31.7873
Status,1714920463999,48,20,6,36,1575420030,41.51,80.0,50.0,1,1,1,37.99955
Status,1714920463999,48,21,6,36,1176450050,36.38,80.0,50.0,0,1,1,32.372326
Status,1714920463999,48,22,1,10,1575420030,42.02,38.0,43.0,1,1,1,38.505997
Status,1714920463999,48,23,1,10,1176450050,33.52,38.0,43.0,1,1,1,29.509037
Status,1714920463999,48,24,6,9,1575420030,39.22,51.0,37.0,1,1,1,35.709354
Status,1714920463999,48,25,6,9,1176450050,31.46,51.0,37.0,1,1,1,27.4476
Status,1714920463999,48,26,5,34,1561097980,41.14,317.0,31.0,1,1,1,37.63326
Status,1714920463999,48,27,5,34,1176450050,34.20,317.0,31.0,1,1,1,30.191803
Status,1714920463999,48,28,7,3,1176450050,27.30,112.0,30.0,1,1,1,23.790497
Status,1714920463999,48,29,5,6,1561097980,33.56,90.0,25.0,1,1,1,30.050638
Status,1714920463999,48,30,5,39,1561097980,38.14,72.0,25.0,1,1,1,34.631706
Status,1714920463999,48,31,5,39,1176450050,24.15,72.0,25.0,0,1,1,20.135618
Status,1714920463999,48,32,6,3,1575420030,41.80,196.0,25.0,1,1,1,38.285587
Status,1714920463999,48,33,6,3,1176450050,33.61,196.0,25.0,1,1,1,29.598906
Status,1714920463999,48,34,5,9,1561097980,26.82,101.0,24.0,1,1,1,23.306074
Status,1714920463999,48,35,5,16,1561097980,38.41,80.0,24.0,1,1,1,34.895477
Status,1714920463999,48,36,5,13,1561097980,37.22,62.0,19.0,1,1,1,33.708317
Status,1714920463999,48,37,5,19,1561097980,31.04,43.0,14.0,1,1,1,27.531347
Status,1714920463999,48,38,5,19,1176450050,21.16,43.0,14.0,0,1,1,17.145327
Status,1714920463999,48,39,6,30,1575420030,31.45,262.0,14.0,1,1,1,27.94438
Status,1714920463999,48,40,6,30,1176450050,29.09,262.0,14.0,1,1,1,25.078949
Status,1714920463999,48,41,6,15,1575420030,27.83,305.0,12.0,0,1,1,24.322048
Status,1714920463999,48,42,6,15,1176450050,16.85,305.0,12.0,0,1,1,12.844594
Status,1714920463999,48,43,1,28,1575420030,35.76,138.0,9.0,1,1,1,32.246136
Status,1714920463999,48,44,1,28,1176450050,26.33,138.0,9.0,1,1,1,22.318659
Status,1714920463999,48,45,5,11,1561097980,27.26,318.0,8.0,1,1,1,23.749355
Status,1714920463999,48,46,6,2,1575420030,31.30,213.0,8.0,1,1,1,27.789976
Status,1714920463999,48,47,6,2,1176450050,24.04,213.0,8.0,1,1,1,20.02721
Raw,1714920464999,280864000000,,,-1398955402135870973,0.0,6.447083273616977,100.0,1.0,23,10,0.0,16431,53282926524369,13,42.015995025634766,398.1996882701899,0.15,16,111258.82540353696,340282346638528860000000000000000000000,1575420030,,,,2,,1,33.20142364501953,38.50599670410156,-3.143213708743226,1.0,-3.143213708743226,1.0,C,75927615821751
Raw,1714920464999,280864000000,,,-1398955402135870973,0.0,6.447083273616977,100.0,1.0,23,27,0.0,16431,53282929385884,16,40.24488830566406,445.80950586936024,0.15,16,121583.13737626879,340282346638528860000000000000000000000,1575420030,,,,2,,1,33.20142364501953,36.73488998413086,-2.7648638073768854,1.0,-2.7648638073768854,1.0,C,75927615821751
Raw,1714920464999,280864000000,,,-1398955402135870973,0.0,6.447083273616977,100.0,1.0,23,28,0.0,16419,53282917061264,33,31.281314849853516,-456.3582306579092,0.702875245034448,16,-97936.84330656462,340282346638528860000000000000000000000,1575420030,,,,2,,1,33.20142364501953,27.77131462097168,8.963979953864575,1.0,8.963979953864575,1.0,C,75927615821751
Raw,1714920464999,280864000000,,,-1398955402135870973,0.0,6.447083273616977,100.0,1.0,23,32,0.0,16431,53282929526888,17,39.26401138305664,90.73746838225418,0.15,16,21182.10161411332,340282346638528860000000000000000000000,1575420030,,,,2,,1,33.20142364501953,35.75401306152344,-1.222360875687938,1.0,-1.222360875687938,1.0,C,75927615821751
Raw,1714920464999,280864000000,,,-1398955402135870973,0.0,6.447083273616977,100.0,1.0,23,10,0.0,81921,53282926524304,6,30.099308013916016,398.13626081860093,0.7766178319707842,16,113564.20120303507,340282346638528860000000000000000000000,1176450050,,,,2,,1,28.13314437866211,26.08930778503418,8.55655704627799,3.138792718842784,8.55655704627799,1.0,Q,75927615821751
Raw,1714920464999,280864000000,,,-1398955402135870973,0.0,6.447083273616977,100.0,1.0,23,27,0.0,81921,53282929385835,6,38.11542510986328,446.11689554473946,0.15,16,123967.00379687187,340282346638528860000000000000000000000,1176450050,,,,2,,1,28.13314437866211,34.10542678833008,3.900008149650271,3.138792718842784,3.900008149650271,1.0,Q,75927615821751
Raw,1714920464999,280864000000,,,-1398955402135870973,0.0,6.447083273616977,100.0,1.0,23,28,0.0,81921,53282917061162,8,22.745637893676758,-455.394174292705,1.1091994352677101,16,-95278.18414922706,340282346638528860000000000000000000000,1176450050,,,,2,,1,28.13314437866211,18.735637664794922,9.3132258331384,3.138792718842784,9.3132258331384,1.0,Q,75927615821751
Raw,1714920464999,280864000000,,,-1398955402135870973,0.0,6.447083273616977,100.0,1.0,23,32,0.0,81921,53282929526827,6,28.905902862548828,90.71344877101973,0.8308239820513772,16,23767.572079737314,340282346638528860000000000000000000000,1176450050,,,,2,,1,28.13314437866211,24.895902633666992,8.381787377706875,3.138792718842784,8.381787377706875,1.0,Q,75927615821751
Raw,1714920464999,280864000000,,,-1398955402135870973,0.0,6.447083273616977,100.0,1.0,23,18,0.0,32995,64064933682722,33,45.15525436401367,-341.92839374750815,0.15,16,-99037.0287777691,340282346638528860000000000000000000000,1600312450,,,,2,,3,48.66847610473633,41.64525604248047,24.38901218470518,2.0000000474974513,24.38901218470518,2.0000000474974513,C,75927615821751
Raw,1714920464999,280864000000,,,-1398955402135870973,0.0,6.447083273616977,100.0,1.0,23,17,0.0,32995,64064933198827,33,44.25054168701172,276.8175755484399,0.15,16,73632.42863733966,340282346638528860000000000000000000000,1604249980,,,,2,,3,48.66847610473633,40.740543365478516,15.832483768463135,2.0000000474974513,15.832483768463135,2.0000000474974513,C,75927615821751
Raw,1714920464999,280864000000,,,-1398955402135870973,0.0,6.447083273616977,100.0,1.0,23,3,0.0,32995,64064935893972,37,38.41041946411133,23.76148135951452,0.15,16,1303.934170925171,340282346638528860000000000000000000000,1604812540,,,,2,,3,48.66847610473633,34.900421142578125,11.554220355620886,2.0000000474974513,11.554220355620886,2.0000000474974513,C,75927615821751
Raw,1714920464999,280864000000,,,-1398955402135870973,0.0,6.447083273616977,100.0,1.0,23,6,0.0,81967,53268869338013,15,32.09014892578125,-253.47397279789095,0.6651136139569194,16,-64741.37328428414,340282346638528860000000000000000000000,1561097980,,,,2,,5,49.36371994018555,28.580150604248047,7.739937394025125,4.8356409757302465,7.739937394025125,1.5000000237487257,I,75927615821751
Raw,1714920464999,280864000000,,,-1398955402135870973,0.0,6.447083273616977,100.0,1.0,23,9,0.0,81955,53268867002705,23,26.81607437133789,-276.9162613013017,0.9018628050490669,16,-60797.46573819125,340282346638528860000000000000000000000,1561097980,,,,2,,5,49.36371994018555,23.306074142456055,9.33993729126336,4.8356409757302465,9.33993729126336,1.5000000237487257,I,75927615821751
Raw,1714920464999,280864000000,,,-1398955402135870973,0.0,6.447083273616977,100.0,1.0,23,11,0.0,81955,53268912643028,26,25.44577980041504,-554.6777675243691,0.9644979060911596,16,-115580.99751195507,340282346638528860000000000000000000000,1561097980,,,,2,,5,49.36371994018555,21.935779571533203,11.939937422505032,4.8356409757302465,11.939937422505032,1.5000000237487257,I,75927615821751
Raw,1714920464999,280864000000,,,-1398955402135870973,0.0,6.447083273616977,100.0,1.0,23,12,0.0,81967,53268925651683,7,40.93179702758789,-269.45554340354545,0.15,16,-77266.63350945478,340282346638528860000000000000000000000,1561097980,,,,2,,5,49.36371994018555,37.42179870605469,12.939937457688776,4.8356409757302465,12.939937457688776,1.5000000237487257,I,75927615821751
Raw,1714920464999,280864000000,,,-1398955402135870973,0.0,6.447083273616977,100.0,1.0,23,13,0.0,81967,53268868084290,10,37.21831512451172,71.7225421048413,0.15,16,19672.485524572647,340282346638528860000000000000000000000,1561097980,,,,2,,5,49.36371994018555,33.708316802978516,26.33993729292792,4.8356409757302465,26.33993729292792,1.5000000237487257,I,75927615821751
Raw,1714920464999,280864000000,,,-1398955402135870973,0.0,6.447083273616977,100.0,1.0,23,16,0.0,81967,53268867649389,9,37.85066223144531,-213.31962439817232,0.15,16,-57115.32203489297,340282346638528860000000000000000000000,1561097980,,,,2,,5,49.36371994018555,34.34066390991211,19.43993738815357,4.8356409757302465,19.43993738815357,1.5000000237487257,I,75927615821751
Raw,1714920464999,280864000000,,,-1398955402135870973,0.0,6.447083273616977,100.0,1.0,23,19,0.0,81967,53268913139789,16,31.04134750366211,603.7135951044538,0.712960989473284,16,161241.34694496298,340282346638528860000000000000000000000,1561097980,,,,1,,5,49.36371994018555,27.531347274780273,6.93993704776662,4.8356409757302465,6.93993704776662,1.5000000237487257,I,75927615821751
Raw,1714920464999,280864000000,,,-1398955402135870973,0.0,6.447083273616977,100.0,1.0,23,21,0.0,81967,53268924155940,10,37.059627532958984,-267.40749450863325,0.15,16,709936.1282105435,340282346638528860000000000000000000000,1561097980,,,,2,,5,49.36371994018555,33.54962921142578,5.43993709440085,4.8356409757302465,5.43993709440085,1.5000000237487257,I,75927615821751
Raw,1714920464999,280864000000,,,-1398955402135870973,0.0,6.447083273616977,100.0,1.0,23,22,0.0,81967,53268926651923,8,39.966102600097656,286.71621156127276,0.15,16,339117.3820696906,340282346638528860000000000000000000000,1561097980,,,,2,,5,49.36371994018555,36.45610427856445,3.039937646182887,4.8356409757302465,3.039937646182887,1.5000000237487257,I,75927615821751
Raw,1714920464999,280864000000,,,-1398955402135870973,0.0,6.447083273616977,100.0,1.0,23,34,0.0,81967,53268919925681,7,41.14325714111328,-479.77945620318883,0.15,16,-129579.3099058308,340282346638528860000000000000000000000,1561097980,,,,2,,5,49.36371994018555,37.63325881958008,22.53993743757727,4.8356409757302465,22.53993743757727,1.5000000237487257,I,75927615821751
Raw,1714920464999,280864000000,,,-1398955402135870973,0.0,6.447083273616977,100.0,1.0,23,39,0.0,81967,53268868914106,9,38.14170455932617,-166.60380667482355,0.15,16,-45538.4283300186,340282346638528860000000000000000000000,1561097980,,,,1,,5,49.36371994018555,34.63170623779297,9.739937464392613,4.8356409757302465,9.739937464392613,1.5000000237487257,I,75927615821751
Raw,1714920464999,280864000000,,,-1398955402135870973,0.0,6.447083273616977,100.0,1.0,23,44,0.0,81967,53268928487377,6,44.73733139038086,12.412674099322892,0.15,16,202.87472867200168,340282346638528860000000000000000000000,1561097980,,,,2,,5,49.36371994018555,41.227333068847656,17.739937348223176,4.8356409757302465,17.739937348223176,1.5000000237487257,I,75927615821751
Raw,1714920464999,280864000000,,,-1398955402135870973,0.0,6.447083273616977,100.0,1.0,23,19,0.0,81959,53268913139732,6,21.15532684326172,603.5185752882303,1.1800085345203604,16,130292.80799953944,340282346638528860000000000000000000000,1176450050,,,,1,,5,28.13314437866211,17.145326614379883,22.060703639978755,3.6387927425915096,22.060703639978755,1.5000000237487257,Q,75927615821751
Raw,1714920464999,280864000000,,,-1398955402135870973,0.0,6.447083273616977,100.0,1.0,23,21,0.0,81959,53268924155923,6,31.467140197753906,-267.43874812126467,0.7182795168732898,16,-65355.25434258534,340282346638528860000000000000000000000,1176450050,,,,2,,5,28.13314437866211,27.45713996887207,23.05023402889399,3.6387927425915096,23.05023402889399,1.5000000237487257,Q,75927615821751
Raw,1714920464999,280864000000,,,-1398955402135870973,0.0,6.447083273616977,100.0,1.0,23,22,0.0,81959,53268926651860,6,25.469959259033203,286.8677421629732,0.9884149371195523,16,80166.8054229229,340282346638528860000000000000000000000,1176450050,,,,2,,5,28.13314437866211,21.459959030151367,27.2411853754587,3.6387927425915096,27.2411853754587,1.5000000237487257,Q,75927615821751
Raw,1714920464999,280864000000,,,-1398955402135870973,0.0,6.447083273616977,100.0,1.0,23,34,0.0,81959,53268919925633,6,34.201805114746094,-479.66446199488087,0.5945438241402057,16,-147952.14669548854,340282346638528860000000000000000000000,1176450050,,,,1,,5,28.13314437866211,30.191802978515625,32.654497697121194,3.6387927425915096,32.654497697121194,1.5000000237487257,Q,75927615821751
Raw,1714920464999,280864000000,,,-1398955402135870973,0.0,6.447083273616977,100.0,1.0,23,39,0.0,81959,53268868914063,25,24.145618438720703,-166.28544244844397,1.0555708896309617,16,-67105.35895818702,340282346638528860000000000000000000000,1176450050,,,,2,,5,28.13314437866211,20.135618209838867,30.5008143772932,3.6387927425915096,30.5008143772932,1.5000000237487257,Q,75927615821751
Raw,1714920464999,280864000000,,,-1398955402135870973,0.0,6.447083273616977,100.0,1.0,23,44,0.0,81959,53268928487330,6,33.54303741455078,12.639550361627578,0.6257079037559525,16,12442.564518304007,340282346638528860000000000000000000000,1176450050,,,,2,,5,28.13314437866211,29.533035278320312,28.28892301328018,3.6387927425915096,28.28892301328018,1.5000000237487257,Q,75927615821751
Raw,1714920464999,280864000000,,,-1398955402135870973,0.0,6.447083273616977,100.0,1.0,23,2,0.0,85026,53282906408788,45,27.294551849365234,478.89372132307403,0.8802394168369827,16,121261.57339311628,340282346638528860000000000000000000000,1575420030,,,,2,,6,33.20142364501953,23.7845516204834,1.280568588247928,1.5000000237487257,1.280568588247928,1.5000000237487257,C,75927615821751
Raw,1714920464999,280864000000,,,-1398955402135870973,0.0,6.447083273616977,100.0,1.0,23,3,0.0,21546,53282912118145,30,32.41181945800781,-528.9998743678011,0.6497095418199712,16,-141216.20160814517,340282346638528860000000000000000000000,1575420030,,,,2,,6,33.20142364501953,28.90182113647461,-2.910383056546322,1.5000000237487257,-2.910383056546322,1.5000000237487257,C,75927615821751
Raw,1714920464999,280864000000,,,-1398955402135870973,0.0,6.447083273616977,100.0,1.0,23,5,0.0,21546,53282925589328,16,39.57636642456055,-177.1173413270127,0.15,16,-50095.720778432566,340282346638528860000000000000000000000,1575420030,,,,1,,6,33.20142364501953,36.066368103027344,-3.3760443283212727,1.5000000237487257,-3.3760443283212727,1.5000000237487257,C,75927615821751
Raw,1714920464999,280864000000,,,-1398955402135870973,0.0,6.447083273616977,100.0,1.0,23,9,0.0,21546,53282914876449,19,37.95930099487305,349.46600166717985,0.15,16,90742.52360926427,340282346638528860000000000000000000000,1575420030,,,,2,,6,33.20142364501953,34.449302673339844,-1.2805685556290713,1.5000000237487257,-1.2805685556290713,1.5000000237487257,C,75927615821751
Raw,1714920464999,280864000000,,,-1398955402135870973,0.0,6.447083273616977,100.0,1.0,23,15,0.0,85026,53282907742987,43,27.832048416137695,-368.5531316287363,0.8563087395125213,16,-81838.77824924934,340282346638528860000000000000000000000,1575420030,,,,2,,6,33.20142364501953,24.32204818725586,-5.005858829238524,1.5000000237487257,-5.005858829238524,1.5000000237487257,C,75927615821751
Raw,1714920464999,280864000000,,,-1398955402135870973,0.0,6.447083273616977,100.0,1.0,23,30,0.0,85026,53282908317354,34,30.864517211914062,368.7320986079376,0.7193258882289189,16,75844.6777031077,340282346638528860000000000000000000000,1575420030,,,,2,,6,33.20142364501953,27.354516983032227,-0.34924601207916983,1.5000000237487257,-0.34924601207916983,1.5000000237487257,C,75927615821751
Raw,1714920464999,280864000000,,,-1398955402135870973,0.0,6.447083273616977,100.0,1.0,23,34,0.0,21546,53282919299246,29,34.17594528198242,-193.29427257345594,299.7930366448577,16,-51895.51649939115,340282346638528860000000000000000000000,1575420030,,,,2,,6,33.20142364501953,30.665945053100586,-4.074536285688622,1.5000000237487257,-4.074536285688622,1.5000000237487257,C,75927615821751
Raw,1714920464999,280864000000,,,-1398955402135870973,0.0,6.447083273616977,100.0,1.0,23,36,0.0,21546,53282918098913,16,39.63247299194336,170.95775528947127,0.15,16,44692.436315990344,340282346638528860000000000000000000000,1575420030,,,,1,,6,33.20142364501953,36.122474670410156,-6.170012157790672,1.5000000237487257,-6.170012157790672,1.5000000237487257,C,75927615821751
Raw,1714920464999,280864000000,,,-1398955402135870973,0.0,6.447083273616977,100.0,1.0,23,2,0.0,84003,53282906408809,6,21.815868377685547,479.8917578974315,1.149094015704426,16,121005.03503000611,340282346638528860000000000000000000000,1176450050,,,,2,,6,28.13314437866211,17.80586814880371,3.681727552921539,3.6387927425915096,3.681727552921539,1.5000000237487257,Q,75927615821751
Raw,1714920464999,280864000000,,,-1398955402135870973,0.0,6.447083273616977,100.0,1.0,23,3,0.0,84003,53282912118071,6,30.621870040893555,-527.9855122967692,0.7541250082808788,16,-143611.4785743148,340282346638528860000000000000000000000,1176450050,,,,2,,6,28.13314437866211,26.61186981201172,-3.8339058040891443,3.6387927425915096,-3.8339058040891443,1.5000000237487257,Q,75927615821751
Raw,1714920464999,280864000000,,,-1398955402135870973,0.0,6.447083273616977,100.0,1.0,23,5,0.0,84003,53282925589237,6,33.58604431152344,-176.90028720264718,0.6232525689730544,16,-49088.833820922715,340282346638528860000000000000000000000,1176450050,,,,2,,6,28.13314437866211,29.5760440826416,-4.668976154999254,3.6387927425915096,-4.668976154999254,1.5000000237487257,Q,75927615821751
Raw,1714920464999,280864000000,,,-1398955402135870973,0.0,6.447083273616977,100.0,1.0,23,9,0.0,84003,53282914876380,6,25.987035751342773,349.63007461288066,0.9630443425743,16,89991.94339100612,340282346638528860000000000000000000000,1176450050,,,,2,,6,28.13314437866211,21.977035522460938,-0.911159476493912,3.6387927425915096,-0.911159476493912,1.5000000237487257,Q,75927615821751
Raw,1714920464999,280864000000,,,-1398955402135870973,0.0,6.447083273616977,100.0,1.0,23,15,0.0,16418,53282907742894,1000000000,12.308221817016602,-368.36639384944783,299792458,16,-80376.28928492957,340282346638528860000000000000000000000,1176450050,,,,1,,6,28.13314437866211,8.298221588134766,-7.591722482594486,3.6387927425915096,-7.591722482594486,1.5000000237487257,Q,75927615821751
Raw,1714920464999,280864000000,,,-1398955402135870973,0.0,6.447083273616977,100.0,1.0,23,30,0.0,84003,53282908317228,6,29.08894920349121,369.2391092311709,0.8223750609005087,16,77433.3934814187,340282346638528860000000000000000000000,1176450050,,,,1,,6,28.13314437866211,25.078948974609375,0.7589814241460024,3.6387927425915096,0.7589814241460024,1.5000000237487257,Q,75927615821751
Raw,1714920464999,280864000000,,,-1398955402135870973,0.0,6.447083273616977,100.0,1.0,23,34,0.0,84003,53282919299163,6,32.56819152832031,-193.28023060136854,0.6678927320767842,16,-51493.22862979026,340282346638528860000000000000000000000,1176450050,,,,2,,6,28.13314437866211,28.55819320678711,-5.921581780774266,3.6387927425915096,-5.921581780774266,1.5000000237487257,Q,75927615821751
Raw,1714920464999,280864000000,,,-1398955402135870973,0.0,6.447083273616977,100.0,1.0,23,36,0.0,84003,53282918098826,6,27.555065155029297,170.7543682301714,0.8931116017984522,16,43988.15233364446,340282346638528860000000000000000000000,1176450050,,,,2,,6,28.13314437866211,23.54506492614746,-9.679398856918995,3.6387927425915096,-9.679398856918995,1.5000000237487257,Q,75927615821751
Raw,1714920464999,280864000000,,,-1398955402135870973,0.0,6.447083273616977,100.0,1.0,23,3,0.0,16419,53282871463054,52,25.437042236328125,27.88811916053689,0.9646786363049475,16,7700.783732856733,340282346638528860000000000000000000000,1176450050,,,,2,,7,,21.92704200744629,-25.42576397917206,1.5000000237487257,-25.42576397917206,1.5000000237487257,C,75927615821751
Raw,1714920464999,280864000000,,,-1398955402135870973,0.0,6.447083273616977,100.0,1.0,23,6,0.0,16431,53282876997470,31,31.904443740844727,14.265535960959255,0.6748423579771385,16,4239.90557775694,340282346638528860000000000000000000000,1176450050,,,,2,,7,,28.39444351196289,-23.336328448194678,1.5000000237487257,-23.336328448194678,1.5000000237487257,C,75927615821751
Raw,1714920464999,280864000000,,,-1398955402135870973,0.0,6.447083273616977,100.0,1.0,23,9,0.0,16419,53282879647542,35,30.2271785736084,2.9042587819873447,0.7507437889515436,16,746.5355238438576,340282346638528860000000000000000000000,1176450050,,,,1,,7,,26.717178344726562,-23.336328448194678,1.5000000237487257,-23.336328448194678,1.5000000237487257,C,75927615821751
Agc,1714920464999,280864000000,,,-1398955402135870973,0.0,6.447083273616977,100.0,1.0,23,30.11020278930664,1575420000,1
Agc,1714920464999,280864000000,,,-1398955402135870973,0.0,6.447083273616977,100.0,1.0,23,25.718292236328125,1176450000,1
Agc,1714920464999,280864000000,,,-1398955402135870973,0.0,6.447083273616977,100.0,1.0,23,49.36371994018555,1602000000,3
Agc,1714920464999,280864000000,,,-1398955402135870973,0.0,6.447083273616977,100.0,1.0,23,30.11020278930664,1575420000,6
Agc,1714920464999,280864000000,,,-1398955402135870973,0.0,6.447083273616977,100.0,1.0,23,25.718292236328125,1176450000,6
Agc,1714920464999,280864000000,,,-1398955402135870973,0.0,6.447083273616977,100.0,1.0,23,48.827857971191406,1561096000,5
Agc,1714920464999,280864000000,,,-1398955402135870973,0.0,6.447083273616977,100.0,1.0,23,30.11020278930664,1575420000,5
Agc,1714920464999,280864000000,,,-1398955402135870973,0.0,6.447083273616977,100.0,1.0,23,25.718292236328125,1176450000,5
Status,1714920463999,48,0,5,44,1561097980,44.74,302.0,88.0,1,1,1,41.227333
Status,1714920463999,48,1,5,44,1176450050,34.93,302.0,88.0,1,1,1,30.920357
Status,1714920463999,48,2,3,3,1604812540,44.28,271.0,84.0,1,1,1,40.765617
Status,1714920463999,48,3,7,9,1176450050,32.54,118.0,70.0,1,1,1,29.027277
Status,1714920463999,48,4,5,22,1561097980,42.09,32.0,66.0,1,1,1,38.584396
Status,1714920463999,48,5,5,22,1176450050,32.62,32.0,66.0,1,1,1,28.611544
Status,1714920463999,48,6,6,5,1575420030,39.58,139.0,65.0,1,1,1,36.06637
Status,1714920463999,48,7,6,5,1176450050,33.59,139.0,65.0,1,1,1,29.576044
Status,1714920463999,48,8,1,32,1575420030,42.31,86.0,63.0,1,1,1,38.798378
Status,1714920463999,48,9,1,32,1176450050,36.53,86.0,63.0,1,1,1,32.51854
Status,1714920463999,48,10,5,12,1561097980,40.93,323.0,61.0,1,1,1,37.4218
Status,1714920463999,48,11,1,27,1575420030,41.67,195.0,58.0,1,1,1,38.16255
Status,1714920463999,48,12,1,27,1176450050,38.51,195.0,58.0,1,1,1,34.499886
Status,1714920463999,48,13,3,18,1600312450,45.81,356.0,58.0,1,1,1,42.296337
Status,1714920463999,48,14,6,34,1575420030,40.22,339.0,56.0,0,1,1,36.71491
Status,1714920463999,48,15,6,34,1176450050,32.57,339.0,56.0,1,1,1,28.558193
Status,1714920463999,48,16,3,17,1604249980,44.94,106.0,55.0,1,1,1,41.425854
Status,1714920463999,48,17,5,21,1561097980,40.86,234.0,55.0,1,1,1,37.346233
Status,1714920463999,48,18,5,21,1176450050,36.91,234.0,55.0,1,1,1,32.89834
Status,1714920463999,48,19,7,6,1176450050,35.30,185.0,52.0,1,1,1,31.7873
Status,1714920463999,48,20,6,36,1575420030,41.51,80.0,50.0,1,1,1,37.99955
Status,1714920463999,48,21,6,36,1176450050,36.38,80.0,50.0,0,1,1,32.372326
Status,1714920463999,48,22,1,10,1575420030,42.02,38.0,43.0,1,1,1,38.505997
Status,1714920463999,48,23,1,10,1176450050,33.52,38.0,43.0,1,1,1,29.509037
Status,1714920463999,48,24,6,9,1575420030,39.22,51.0,37.0,1,1,1,35.709354
Status,1714920463999,48,25,6,9,1176450050,31.46,51.0,37.0,1,1,1,27.4476
Status,1714920463999,48,26,5,34,1561097980,41.14,317.0,31.0,1,1,1,37.63326
Status,1714920463999,48,27,5,34,1176450050,34.20,317.0,31.0,1,1,1,30.191803
Status,1714920463999,48,28,7,3,1176450050,27.30,112.0,30.0,1,1,1,23.790497
Status,1714920463999,48,29,5,6,1561097980,33.56,90.0,25.0,1,1,1,30.050638
Status,1714920463999,48,30,5,39,1561097980,38.14,72.0,25.0,1,1,1,34.631706
Status,1714920463999,48,31,5,39,1176450050,24.15,72.0,25.0,0,1,1,20.135618
Status,1714920463999,48,32,6,3,1575420030,41.80,196.0,25.0,1,1,1,38.285587
Status,1714920463999,48,33,6,3,1176450050,33.61,196.0,25.0,1,1,1,29.598906
Status,1714920463999,48,34,5,9,1561097980,26.82,101.0,24.0,1,1,1,23.306074
Status,1714920463999,48,35,5,16,1561097980,38.41,80.0,24.0,1,1,1,34.895477
Status,1714920463999,48,36,5,13,1561097980,37.22,62.0,19.0,1,1,1,33.708317
Status,1714920463999,48,37,5,19,1561097980,31.04,43.0,14.0,1,1,1,27.531347
Status,1714920463999,48,38,5,19,1176450050,21.16,43.0,14.0,0,1,1,17.145327
Status,1714920463999,48,39,6,30,1575420030,31.45,262.0,14.0,1,1,1,27.94438
Status,1714920463999,48,40,6,30,1176450050,29.09,262.0,14.0,1,1,1,25.078949
Status,1714920463999,48,41,6,15,1575420030,27.83,305.0,12.0,0,1,1,24.322048
Status,1714920463999,48,42,6,15,1176450050,16.85,305.0,12.0,0,1,1,12.844594
Status,1714920463999,48,43,1,28,1575420030,35.76,138.0,9.0,1,1,1,32.246136
Status,1714920463999,48,44,1,28,1176450050,26.33,138.0,9.0,1,1,1,22.318659
Status,1714920463999,48,45,5,11,1561097980,27.26,318.0,8.0,1,1,1,23.749355
Status,1714920463999,48,46,6,2,1575420030,31.30,213.0,8.0,1,1,1,27.789976
Status,1714920463999,48,47,6,2,1176450050,24.04,213.0,8.0,1,1,1,20.02721
Fix,GPS,32.1026219592,35.2096590630,698.8945665775042,0.21616438,2.6467085,138.80435,1714920464999,0.14358875,9.061684,75927567178400,3.0,0,,,
Fix,FLP,32.1026230000,35.2096575000,703.2000122070312,0.21633671,11.289,138.00175,1714920465759,0.14358875,9.061684,75927567178400,2.9274962,0,,,
Status,1714920464999,48,0,5,44,1561097980,44.40,302.0,88.0,1,1,1,40.89091
Status,1714920464999,48,1,5,44,1176450050,34.39,302.0,88.0,1,1,1,30.37897
Status,1714920464999,48,2,3,3,1604812540,43.96,271.0,84.0,1,1,1,40.447067
Status,1714920464999,48,3,7,9,1176450050,35.15,118.0,70.0,1,1,1,31.639475
Status,1714920464999,48,4,5,22,1561097980,41.72,32.0,66.0,1,1,1,38.20842
Status,1714920464999,48,5,5,22,1176450050,32.23,32.0,66.0,1,1,1,28.220491
Status,1714920464999,48,6,6,5,1575420030,39.24,139.0,65.0,1,1,1,35.73494
Status,1714920464999,48,7,6,5,1176450050,33.26,139.0,65.0,1,1,1,29.24915
Status,1714920464999,48,8,1,32,1575420030,41.54,86.0,63.0,1,1,1,38.033287
Status,1714920464999,48,9,1,32,1176450050,35.35,86.0,63.0,1,1,1,31.337017
Status,1714920464999,48,10,5,12,1561097980,40.72,323.0,61.0,1,1,1,37.209244
Status,1714920464999,48,11,1,27,1575420030,41.33,195.0,58.0,1,1,1,37.82329
Status,1714920464999,48,12,1,27,1176450050,38.34,195.0,58.0,1,1,1,34.332844
Status,1714920464999,48,13,3,18,1600312450,46.57,356.0,58.0,1,1,1,43.056946
Status,1714920464999,48,14,6,34,1575420030,39.30,339.0,56.0,0,1,1,35.793335
Status,1714920464999,48,15,6,34,1176450050,32.59,339.0,56.0,1,1,1,28.57523
Status,1714920464999,48,16,3,17,1604249980,44.18,106.0,55.0,1,1,1,40.669086
Status,1714920464999,48,17,5,21,1561097980,40.69,234.0,55.0,1,1,1,37.184402
Status,1714920464999,48,18,5,21,1176450050,36.43,234.0,55.0,1,1,1,32.418697
Status,1714920464999,48,19,7,6,1176450050,34.96,185.0,52.0,1,1,1,31.453993
Status,1714920464999,48,20,6,36,1575420030,41.24,80.0,50.0,1,1,1,37.730877
Status,1714920464999,48,21,6,36,1176450050,35.57,80.0,50.0,1,1,1,31.564734
Status,1714920464999,48,22,1,10,1575420030,41.51,38.0,43.0,1,1,1,37.998726
Status,1714920464999,48,23,1,10,1176450050,33.37,38.0,43.0,1,1,1,29.358639
Status,1714920464999,48,24,6,9,1575420030,38.72,51.0,37.0,1,1,1,35.207226
Status,1714920464999,48,25,6,9,1176450050,30.80,51.0,37.0,1,1,1,26.790543
Status,1714920464999,48,26,5,34,1561097980,40.94,317.0,31.0,1,1,1,37.431313
Status,1714920464999,48,27,5,34,1176450050,35.27,317.0,31.0,1,1,1,31.25764
Status,1714920464999,48,28,7,3,1176450050,27.15,112.0,30.0,1,1,1,23.64125
Status,1714920464999,48,29,5,6,1561097980,33.47,90.0,25.0,1,1,1,29.9583
Status,1714920464999,48,30,5,39,1561097980,38.07,72.0,25.0,1,1,1,34.55554
Status,1714920464999,48,31,5,39,1176450050,24.05,72.0,25.0,1,1,1,20.03905
Status,1714920464999,48,32,6,3,1575420030,40.52,196.0,25.0,0,1,1,37.014282
Status,1714920464999,48,33,6,3,1176450050,33.18,196.0,25.0,1,1,1,29.169487
Status,1714920464999,48,34,5,9,1561097980,26.33,101.0,24.0,0,1,1,22.817066
Status,1714920464999,48,35,5,16,1561097980,39.40,80.0,24.0,1,1,1,35.886497
Status,1714920464999,48,36,5,13,1561097980,38.59,62.0,19.0,1,1,1,35.08088
Status,1714920464999,48,37,5,19,1561097980,31.07,43.0,14.0,1,1,1,27.557705
Status,1714920464999,48,38,5,19,1176450050,20.62,43.0,14.0,0,1,1,16.612146
Status,1714920464999,48,39,6,30,1575420030,31.10,262.0,14.0,1,1,1,27.589663
Status,1714920464999,48,40,6,30,1176450050,32.29,262.0,14.0,1,1,1,28.28356
Status,1714920464999,48,41,6,15,1575420030,27.26,305.0,12.0,0,1,1,23.746317
Status,1714920464999,48,42,6,15,1176450050,16.72,305.0,12.0,0,1,1,12.706823
Status,1714920464999,48,43,1,28,1575420030,34.74,138.0,9.0,1,1,1,31.234459
Status,1714920464999,48,44,1,28,1176450050,25.94,138.0,9.0,1,1,1,21.925152
Status,1714920464999,48,45,5,11,1561097980,26.65,318.0,8.0,1,1,1,23.140491
Status,1714920464999,48,46,6,2,1575420030,30.32,213.0,8.0,0,1,1,26.813702
Status,1714920464999,48,47,6,2,1176450050,23.50,213.0,8.0,0,1,1,19.491837
Raw,1714920465999,281864000000,,,-1398955402135870873,0.0,6.2806839141649915,101.0,1.0,23,10,0.0,16431,53283926523046,20,36.94328689575195,398.623435452138,0.15,16,111657.28609607615,340282346638528860000000000000000000000,1575420030,,,,2,,1,30.11020278930664,33.43328857421875,-3.143213708743226,1.0,-3.143213708743226,1.0,C,75928604395157
Raw,1714920465999,281864000000,,,-1398955402135870873,0.0,6.2806839141649915,101.0,1.0,23,27,0.0,16431,53283929384394,18,38.279937744140625,446.4139582357923,0.15,16,122029.52351847412,340282346638528860000000000000000000000,1575420030,,,,2,,1,30.11020278930664,34.76993942260742,-2.7648638073768854,1.0,-2.7648638073768854,1.0,C,75928604395157
Raw,1714920465999,281864000000,,,-1398955402135870873,0.0,6.2806839141649915,101.0,1.0,23,28,0.0,16419,53283917062768,52,25.639368057250977,-455.9221115442433,0.9565874478129728,16,-98392.20661453242,340282346638528860000000000000000000000,1575420030,,,,2,,1,30.11020278930664,22.12936782836914,8.963979953864575,1.0,8.963979953864575,1.0,C,75928604395157
Raw,1714920465999,281864000000,,,-1398955402135870873,0.0,6.2806839141649915,101.0,1.0,23,32,0.0,16431,53283929526586,25,34.65747833251953,91.66764678567472,0.5496975686821894,16,21273.376248070843,340282346638528860000000000000000000000,1575420030,,,,1,,1,30.11020278930664,31.147480010986328,-1.222360875687938,1.0,-1.222360875687938,1.0,C,75928604395157
Raw,1714920465999,281864000000,,,-1398955402135870873,0.0,6.2806839141649915,101.0,1.0,23,10,0.0,81921,53283926522974,6,32.01504898071289,398.3860170600001,0.6904688980236555,16,113962.56459707553,340282346638528860000000000000000000000,1176450050,,,,2,,1,25.718292236328125,28.005048751831055,8.55655704627799,3.059212750466503,8.55655704627799,1.0,Q,75928604395157
Raw,1714920465999,281864000000,,,-1398955402135870873,0.0,6.2806839141649915,101.0,1.0,23,27,0.0,81921,53283929384351,6,36.8394775390625,446.24388677774346,0.15,16,124413.388961626,340282346638528860000000000000000000000,1176450050,,,,2,,1,25.718292236328125,32.8294792175293,3.900008149650271,3.059212750466503,3.900008149650271,1.0,Q,75928604395157
