# 
# Header Description:
# 
# Version: v3.0.6.4 Platform: 14 Manufacturer: Google Model: Pixel 8 Pro
# 
# Raw,utcTimeMillis,TimeNanos,LeapSecond,TimeUncertaintyNanos,FullBiasNanos,BiasNanos,BiasUncertaintyNanos,DriftNanosPerSecond,DriftUncertaintyNanosPerSecond,HardwareClockDiscontinuityCount,Svid,TimeOffsetNanos,State,ReceivedSvTimeNanos,ReceivedSvTimeUncertaintyNanos,Cn0DbHz,PseudorangeRateMetersPerSecond,PseudorangeRateUncertaintyMetersPerSecond,AccumulatedDeltaRangeState,AccumulatedDeltaRangeMeters,AccumulatedDeltaRangeUncertaintyMeters,CarrierFrequencyHz,CarrierCycles,CarrierPhase,CarrierPhaseUncertainty,MultipathIndicator,SnrInDb,ConstellationType,AgcDb,BasebandCn0DbHz,FullInterSignalBiasNanos,FullInterSignalBiasUncertaintyNanos,SatelliteInterSignalBiasNanos,SatelliteInterSignalBiasUncertaintyNanos,CodeType,ChipsetElapsedRealtimeNanos
# 
# UncalAccel,utcTimeMillis,elapsedRealtimeNanos,UncalAccelXMps2,UncalAccelYMps2,UncalAccelZMps2,BiasXMps2,BiasYMps2,BiasZMps2
# 
# Accel,utcTimeMillis,elapsedRealtimeNanos,AccelXMps2,AccelYMps2,AccelZMps2
# 
# UncalGyro,utcTimeMillis,elapsedRealtimeNanos,UncalGyroXRadPerSec,UncalGyroYRadPerSec,UncalGyroZRadPerSec,DriftXRadPerSec,DriftYRadPerSec,DriftZRadPerSec
# 
# Gyro,utcTimeMillis,elapsedRealtimeNanos,GyroXRadPerSec,GyroYRadPerSec,GyroZRadPerSec
# 
# UncalMag,utcTimeMillis,elapsedRealtimeNanos,UncalMagXMicroT,UncalMagYMicroT,UncalMagZMicroT,BiasXMicroT,BiasYMicroT,BiasZMicroT
# 
# Mag,utcTimeMillis,elapsedRealtimeNanos,MagXMicroT,MagYMicroT,MagZMicroT
# 
# OrientationDeg,utcTimeMillis,elapsedRealtimeNanos,yawDeg,rollDeg,pitchDeg
# 
# Fix,Provider,LatitudeDegrees,LongitudeDegrees,AltitudeMeters,SpeedMps,AccuracyMeters,BearingDegrees,UnixTimeMillis,SpeedAccuracyMps,BearingAccuracyDegrees,elapsedRealtimeNanos,VerticalAccuracyMeters,MockLocation,NumberOfUsedSignals,VerticalSpeedAccuracyMps,SolutionType
# 
# Nav,Svid,Type,Status,MessageId,Sub-messageId,Data(Bytes)
# 
# Status,UnixTimeMillis,SignalCount,SignalIndex,ConstellationType,Svid,CarrierFrequencyHz,Cn0DbHz,AzimuthDegrees,ElevationDegrees,UsedInFix,HasAlmanacData,HasEphemerisData,BasebandCn0DbHz
# 
# Agc,utcTimeMillis,TimeNanos,LeapSecond,TimeUncertaintyNanos,FullBiasNanos,BiasNanos,BiasUncertaintyNanos,DriftNanosPerSecond,DriftUncertaintyNanosPerSecond,HardwareClockDiscontinuityCount,AgcDb,CarrierFrequencyHz,ConstellationType
# 
Fix,FLP,32.0740778000,34.9075160000,71.4000015258789,0.02014924,4.615,,1715115249210,0.019944744,,177042693482683,1.8534634,0,,,
Status,,39,0,3,10,1598062460,18.67,92.0,68.0,0,1,1,15.158147
Status,,39,1,5,45,1561097980,15.41,164.0,67.0,0,1,1,11.9032345
Status,,39,2,5,22,1561097980,32.51,69.0,64.0,1,1,1,28.997791
Status,,39,3,5,22,1176450050,16.42,69.0,64.0,0,1,1,12.411097
Status,,39,4,1,7,1575420030,48.96,238.0,61.0,1,1,1,45.452057
Status,,39,5,1,9,1575420030,42.13,346.0,59.0,1,1,1,38.618343
Status,,39,6,1,9,1176450050,24.96,346.0,59.0,0,1,1,20.947044
Status,,39,7,7,9,1176450050,15.62,124.0,58.0,0,1,1,12.112575
Status,,39,8,6,19,1575420030,31.82,30.0,57.0,1,1,1,28.31196
Status,,39,9,6,19,1176450050,17.48,30.0,57.0,0,1,1,13.474495
Status,,39,10,3,8,1605374980,39.54,0.0,50.0,1,1,1,36.03493
Status,,39,11,5,21,1561097980,44.47,324.0,45.0,1,1,1,40.95551
Status,,39,12,5,36,1561097980,27.69,54.0,45.0,0,1,1,24.184612
Status,,39,13,5,21,1176450050,18.61,324.0,45.0,0,1,1,14.597081
Status,,39,14,1,4,1575420030,28.47,55.0,44.0,0,1,1,24.95984
Status,,39,15,6,21,1575420030,35.67,99.0,41.0,1,1,1,32.163853
Status,,39,16,6,12,1575420030,29.07,238.0,38.0,1,1,1,25.559021
Status,,39,17,6,12,1176450050,23.26,238.0,38.0,0,1,1,19.253704
Status,,39,18,1,3,1575420030,25.66,137.0,37.0,0,1,1,22.146242
Status,,39,19,6,10,1575420030,42.12,270.0,37.0,1,1,1,38.612434
Status,,39,20,6,10,1176450050,21.63,270.0,37.0,0,1,1,17.62488
Status,,39,21,6,4,1575420030,39.66,298.0,36.0,1,1,1,36.154564
Status,,39,22,1,6,1575420030,43.75,268.0,35.0,1,1,1,40.23609
Status,,39,23,1,6,1176450050,18.84,268.0,35.0,0,1,1,14.830262
Status,,39,24,5,9,1561097980,19.28,45.0,31.0,0,1,1,15.769805
Status,,39,25,7,3,1176450050,15.29,114.0,28.0,0,1,1,11.780092
Status,,39,26,1,30,1575420030,46.31,231.0,27.0,1,1,1,42.80235
Status,,39,27,1,30,1176450050,23.94,231.0,27.0,1,1,1,19.931986
Status,,39,28,1,16,1575420030,22.14,65.0,26.0,1,1,1,18.632788
Status,,39,29,6,11,1575420030,38.41,300.0,26.0,1,1,1,34.900494
Status,,39,30,6,11,1176450050,19.42,300.0,26.0,0,1,1,15.410415
Status,,39,31,5,19,1561097980,19.62,111.0,19.0,0,1,1,16.107899
Status,,39,32,1,11,1575420030,44.97,307.0,18.0,1,1,1,41.46263
Status,,39,33,1,11,1176450050,21.06,307.0,18.0,0,1,1,17.053452
Status,,39,34,5,26,1561097980,12.58,207.0,18.0,0,1,1,9.072197
Status,,39,35,6,27,1575420030,17.62,46.0,16.0,0,1,1,14.10712
Status,,39,36,5,16,1561097980,14.51,50.0,12.0,0,1,1,10.999117
Status,,39,37,6,33,1575420030,17.68,186.0,12.0,0,1,1,14.166736
Status,,39,38,5,7,1561097980,28.13,96.0,10.0,0,1,1,24.615828
Status,,39,0,3,10,1598062460,18.67,92.0,68.0,0,1,1,15.158147
Status,,39,1,5,45,1561097980,15.41,164.0,67.0,0,1,1,11.9032345
Status,,39,2,5,22,1561097980,32.51,69.0,64.0,1,1,1,28.997791
Status,,39,3,5,22,1176450050,16.42,69.0,64.0,0,1,1,12.411097
Status,,39,4,1,7,1575420030,48.96,238.0,61.0,1,1,1,45.452057
Status,,39,5,1,9,1575420030,42.13,346.0,59.0,1,1,1,38.618343
Status,,39,6,1,9,1176450050,24.96,346.0,59.0,0,1,1,20.947044
Status,,39,7,7,9,1176450050,15.62,124.0,58.0,0,1,1,12.112575
Status,,39,8,6,19,1575420030,31.82,30.0,57.0,1,1,1,28.31196
Status,,39,9,6,19,1176450050,17.48,30.0,57.0,0,1,1,13.474495
Status,,39,10,3,8,1605374980,39.54,0.0,50.0,1,1,1,36.03493
Status,,39,11,5,21,1561097980,44.47,324.0,45.0,1,1,1,40.95551
Status,,39,12,5,36,1561097980,27.69,54.0,45.0,0,1,1,24.184612
Status,,39,13,5,21,1176450050,18.61,324.0,45.0,0,1,1,14.597081
Status,,39,14,1,4,1575420030,28.47,55.0,44.0,0,1,1,24.95984
Status,,39,15,6,21,1575420030,35.67,99.0,41.0,1,1,1,32.163853
Status,,39,16,6,12,1575420030,29.07,238.0,38.0,1,1,1,25.559021
Status,,39,17,6,12,1176450050,23.26,238.0,38.0,0,1,1,19.253704
Status,,39,18,1,3,1575420030,25.66,137.0,37.0,0,1,1,22.146242
Status,,39,19,6,10,1575420030,42.12,270.0,37.0,1,1,1,38.612434
Status,,39,20,6,10,1176450050,21.63,270.0,37.0,0,1,1,17.62488
Status,,39,21,6,4,1575420030,39.66,298.0,36.0,1,1,1,36.154564
Status,,39,22,1,6,1575420030,43.75,268.0,35.0,1,1,1,40.23609
Status,,39,23,1,6,1176450050,18.84,268.0,35.0,0,1,1,14.830262
Status,,39,24,5,9,1561097980,19.28,45.0,31.0,0,1,1,15.769805
Status,,39,25,7,3,1176450050,15.29,114.0,28.0,0,1,1,11.780092
Status,,39,26,1,30,1575420030,46.31,231.0,27.0,1,1,1,42.80235
Status,,39,27,1,30,1176450050,23.94,231.0,27.0,1,1,1,19.931986
Status,,39,28,1,16,1575420030,22.14,65.0,26.0,1,1,1,18.632788
Status,,39,29,6,11,1575420030,38.41,300.0,26.0,1,1,1,34.900494
Status,,39,30,6,11,1176450050,19.42,300.0,26.0,0,1,1,15.410415
Status,,39,31,5,19,1561097980,19.62,111.0,19.0,0,1,1,16.107899
Status,,39,32,1,11,1575420030,44.97,307.0,18.0,1,1,1,41.46263
Status,,39,33,1,11,1176450050,21.06,307.0,18.0,0,1,1,17.053452
Status,,39,34,5,26,1561097980,12.58,207.0,18.0,0,1,1,9.072197
Status,,39,35,6,27,1575420030,17.62,46.0,16.0,0,1,1,14.10712
Status,,39,36,5,16,1561097980,14.51,50.0,12.0,0,1,1,10.999117
Status,,39,37,6,33,1575420030,17.68,186.0,12.0,0,1,1,14.166736
Status,,39,38,5,7,1561097980,28.13,96.0,10.0,0,1,1,24.615828
Fix,GPS,32.0740785124,34.9075186066,66.70595526797753,0.021803536,3.0299928,287.5829,1715115248000,0.02373436,180.0,177043674600888,3.6123025,0,,,
Raw,1715115248000,191496000000,,,-1399150274504301587,0.0,12.084125011147599,108.0,1.0,21,3,0.0,16431,248065926204662,51,25.65624237060547,574.4619178042735,0.953875562663983,16,11536.522172350484,340282346638528860000000000000000000000,1575420030,,,,1,,1,33.75603485107422,22.146242141723633,-0.8440110737314445,1.0,-0.8440110737314445,1.0,C,177043724778744
Raw,1715115248000,191496000000,,,-1399150274504301587,0.0,12.084125011147599,108.0,1.0,21,4,0.0,16431,248065928288541,50,26.05976676940918,281.3280989683534,0.9361044905484448,21,5865.083206711838,0.10153389830429828,1575420030,,,,1,,1,33.75603485107422,22.549766540527344,4.452885954839774,1.0,4.452885954839774,1.0,C,177043724778744
Raw,1715115248000,191496000000,,,-1399150274504301587,0.0,12.084125011147599,108.0,1.0,21,6,0.0,16431,248065925583792,12,43.1090202331543,196.8660117696769,0.15,25,3969.485649408265,0.0009515125420875847,1575420030,,,,2,,1,33.75603485107422,39.599021911621094,-2.881279299287855,1.0,-2.881279299287855,1.0,C,177043724778744
Raw,1715115248000,191496000000,,,-1399150274504301587,0.0,12.084125011147599,108.0,1.0,21,7,0.0,16431,248065929494761,9,48.86603546142578,-187.37004293943278,0.15,25,-4202.230693874982,0.0005169430514797568,1575420030,,,,2,,1,33.75603485107422,45.35603713989258,10.652002101327463,1.0,10.652002101327463,1.0,C,177043724778744
Raw,1715115248000,191496000000,,,-1399150274504301587,0.0,12.084125011147599,108.0,1.0,21,9,0.0,16431,248065930996037,14,41.911956787109375,-66.2653443725502,0.15,25,-1802.9657430442926,0.0010921135544776917,1575420030,,,,2,,1,33.75603485107422,38.40195846557617,-1.7171259707357078,1.0,-1.7171259707357078,1.0,C,177043724778744
Raw,1715115248000,191496000000,,,-1399150274504301587,0.0,12.084125011147599,108.0,1.0,21,11,0.0,16431,248065920001832,11,44.448604583740234,-230.68206277107674,0.15,25,-46289.69066021943,0.0008155214018188417,1575420030,,,,2,,1,33.75603485107422,40.93860626220703,8.643837301404483,1.0,8.643837301404483,1.0,C,177043724778744
Raw,1715115248000,191496000000,,,-1399150274504301587,0.0,12.084125011147599,108.0,1.0,21,16,0.0,16431,248065924005443,86,19.29977035522461,173.9345681658583,1.2393233253106928,16,3889.0000997435254,340282346638528860000000000000000000000,1575420030,,,,1,,1,33.75603485107422,15.78977108001709,10.244548177868609,1.0,10.244548177868609,1.0,C,177043724778744
Raw,1715115248000,191496000000,,,-1399150274504301587,0.0,12.084125011147599,108.0,1.0,21,30,0.0,16431,248065922474496,12,45.828834533691406,-492.90004316094905,0.15,25,-11372.674973274712,0.0007333355024456978,1575420030,,,,2,,1,33.75603485107422,42.3188362121582,-5.704350952030072,1.0,-5.704350952030072,1.0,C,177043724778744
Raw,1715115248000,191496000000,,,-1399150274504301587,0.0,12.084125011147599,108.0,1.0,21,3,0.0,16384,248065926204935,1000000000,11.010000228881836,575.2976878031259,299792458,16,11301.241268608432,340282346638528860000000000000000000000,1176450050,,,,1,,1,27.430871963500977,7.0,2.5320674181817084,11.00692285594456,2.5320674181817084,1.0,Q,177043724778744
Raw,1715115248000,191496000000,,,-1399150274504301587,0.0,12.084125011147599,108.0,1.0,21,4,0.0,16384,248065928288665,1000000000,11.010000228881836,282.1776723620975,299792458,16,5363.733733320761,340282346638528860000000000000000000000,1176450050,,,,1,,1,27.430871963500977,7.0,2.8813848725453908,11.00692285594456,2.8813848725453908,1.0,Q,177043724778744
Raw,1715115248000,191496000000,,,-1399150274504301587,0.0,12.084125011147599,108.0,1.0,21,6,0.0,16384,248065925583733,1000000000,12.710674285888672,197.04247368832375,299792458,16,3873.4685708282177,340282346638528860000000000000000000000,1176450050,,,,0,,1,27.430871963500977,8.700674057006836,-2.153536392074096,11.00692285594456,-2.153536392074096,1.0,Q,177043724778744
Raw,1715115248000,191496000000,,,-1399150274504301587,0.0,12.084125011147599,108.0,1.0,21,9,0.0,81921,248065930995993,7,19.31597328186035,-66.9243712724894,1.2623364390009542,16,-1363.412739712259,340282346638528860000000000000000000000,1176450050,,,,2,,1,27.430871963500977,15.305973052978516,3.4343640757788547,11.00692285594456,3.4343640757788547,1.0,Q,177043724778744
Raw,1715115248000,191496000000,,,-1399150274504301587,0.0,12.084125011147599,108.0,1.0,21,11,0.0,81921,248065920001766,35,13.897294998168945,-230.16312328806043,299.7960699834882,16,-44348.96763987454,340282346638528860000000000000000000000,1176450050,,,,2,,1,27.430871963500977,9.88729476928711,10.768559749319673,11.00692285594456,10.768559749319673,1.0,Q,177043724778744
Raw,1715115248000,191496000000,,,-1399150274504301587,0.0,12.084125011147599,108.0,1.0,21,30,0.0,81921,248065922474441,6,22.034029006958008,-493.12072706693425,1.1385758500984569,16,-11853.322886700498,340282346638528860000000000000000000000,1176450050,,,,2,,1,27.430871963500977,18.024028778076172,-0.785929329757058,11.00692285594456,-0.785929329757058,1.0,Q,177043724778744
Raw,1715115248000,191496000000,,,-1399150274504301587,0.0,12.084125011147599,108.0,1.0,21,10,0.0,32768,86047935238654,1000000000,15.39785385131836,5.392186511550598,299792458,16,95.89532527157037,340282346638528860000000000000000000000,1598062460,,,,1,,3,47.2757568359375,11.887853622436523,17.695128917694092,2.0000000474974513,17.695128917694092,2.0000000474974513,C,177043724778744
Raw,1715115248000,191496000000,,,-1399150274504301587,0.0,12.084125011147599,108.0,1.0,21,8,0.0,32995,86047932394156,33,39.54492950439453,-216.3177899335709,0.15,25,-6727.161534431019,0.0014074695063754916,1605374980,,,,2,,3,47.2757568359375,36.03493118286133,11.990777170385243,2.0000000474974513,11.990777170385243,2.0000000474974513,C,177043724778744
Raw,1715115248000,191496000000,,,-1399150274504301587,0.0,12.084125011147599,108.0,1.0,21,7,0.0,81967,248051863809762,24,26.36737060546875,-277.98096316061776,0.9214661420391956,16,-4998.686539034327,340282346638528860000000000000000000000,1561097980,,,,2,,5,49.36371994018555,22.857370376586914,0.895926497316772,4.8356409757302465,0.895926497316772,1.5000000237487257,I,177043724778744
Raw,1715115248000,191496000000,,,-1399150274504301587,0.0,12.084125011147599,108.0,1.0,21,9,0.0,81954,248051869744678,1000000000,11.283514022827148,147.63739677427088,299792458,16,3175.5868445357664,340282346638528860000000000000000000000,1561097980,,,,1,,5,49.36371994018555,7.7735137939453125,8.495926208018082,4.8356409757302465,8.495926208018082,1.5000000237487257,I,177043724778744
Raw,1715115248000,191496000000,,,-1399150274504301587,0.0,12.084125011147599,108.0,1.0,21,16,0.0,16384,248051864585594,1000000000,14.386554718017578,160.3775553523235,299792458,16,2890.6899905795694,340282346638528860000000000000000000000,1561097980,,,,1,,5,49.36371994018555,10.876554489135742,18.595926304908293,4.8356409757302465,18.595926304908293,1.5000000237487257,I,177043724778744
Raw,1715115248000,191496000000,,,-1399150274504301587,0.0,12.084125011147599,108.0,1.0,21,19,0.0,16384,248051915224790,1000000000,19.61789894104004,453.4014071422728,299792458,16,9077.55469339451,340282346638528860000000000000000000000,1561097980,,,,1,,5,49.36371994018555,16.107898712158203,6.095925964521342,4.8356409757302465,6.095925964521342,1.5000000237487257,I,177043724778744
Raw,1715115248000,191496000000,,,-1399150274504301587,0.0,12.084125011147599,108.0,1.0,21,21,0.0,81967,248051922443564,6,43.351566314697266,-338.56520510275027,0.15,25,723069.7574920757,0.0009337992523796856,1561097980,,,,2,,5,49.36371994018555,39.84156799316406,4.595926011155573,4.8356409757302465,4.595926011155573,1.5000000237487257,I,177043724778744
Raw,1715115248000,191496000000,,,-1399150274504301587,0.0,12.084125011147599,108.0,1.0,21,22,0.0,81967,248051926782842,21,28.00264549255371,97.6408358684929,0.8484644491284432,17,2030.93960998888,0.10117349369023894,1561097980,,,,2,,5,49.36371994018555,24.492645263671875,2.1959265629376095,4.8356409757302465,2.1959265629376095,1.5000000237487257,I,177043724778744
Raw,1715115248000,191496000000,,,-1399150274504301587,0.0,12.084125011147599,108.0,1.0,21,26,0.0,16384,248051915914851,1000000000,12.582197189331055,-593.916661141885,299792458,16,-607.9089656573838,340282346638528860000000000000000000000,1561097980,,,,0,,5,49.36371994018555,9.072196960449219,20.695926120328554,4.8356409757302465,20.695926120328554,1.5000000237487257,I,177043724778744
Raw,1715115248000,191496000000,,,-1399150274504301587,0.0,12.084125011147599,108.0,1.0,21,36,0.0,81967,248051923559466,22,27.28135871887207,365.010771510038,0.8803200964020328,16,7585.53264644283,340282346638528860000000000000000000000,1561097980,,,,1,,5,49.36371994018555,23.771358489990234,36.095925827115494,4.8356409757302465,36.095925827115494,1.5000000237487257,I,177043724778744
Raw,1715115248000,191496000000,,,-1399150274504301587,0.0,12.084125011147599,108.0,1.0,21,45,0.0,16384,248051927134221,1000000000,15.41323471069336,-219.5792424456082,299792458,16,-4562.353048211832,340282346638528860000000000000000000000,1561097980,,,,0,,5,49.36371994018555,11.903234481811523,-3.9040739896767107,4.8356409757302465,-3.9040739896767107,1.5000000237487257,I,177043724778744
Raw,1715115248000,191496000000,,,-1399150274504301587,0.0,12.084125011147599,108.0,1.0,21,19,0.0,16418,248051915224864,1000000000,11.010000228881836,454.03101236161865,299792458,16,7806.371546962326,340282346638528860000000000000000000000,1176450050,,,,1,,5,27.430871963500977,7.0,21.216692556733477,11.506922879693287,21.216692556733477,1.5000000237487257,Q,177043724778744
Raw,1715115248000,191496000000,,,-1399150274504301587,0.0,12.084125011147599,108.0,1.0,21,21,0.0,81959,248051922443545,6,18.60708236694336,-338.460946868247,1.296273778814351,16,-54326.54303677606,340282346638528860000000000000000000000,1176450050,,,,1,,5,27.430871963500977,14.597081184387207,22.20622294564871,11.506922879693287,22.20622294564871,1.5000000237487257,Q,177043724778744
Raw,1715115248000,191496000000,,,-1399150274504301587,0.0,12.084125011147599,108.0,1.0,21,22,0.0,16418,248051926782807,1000000000,15.032720565795898,97.2430083947304,299792458,16,1349.890946958437,340282346638528860000000000000000000000,1176450050,,,,1,,5,27.430871963500977,11.022720336914062,26.39717429221342,11.506922879693287,26.39717429221342,1.5000000237487257,Q,177043724778744
Raw,1715115248000,191496000000,,,-1399150274504301587,0.0,12.084125011147599,108.0,1.0,21,36,0.0,16418,248051923559697,1000000000,11.010000228881836,364.6471116989396,299792458,16,6432.474954650051,340282346638528860000000000000000000000,1176450050,,,,1,,5,27.430871963500977,7.0,25.349436654391937,11.506922879693287,25.349436654391937,1.5000000237487257,Q,177043724778744
Raw,1715115248000,191496000000,,,-1399150274504301587,0.0,12.084125011147599,108.0,1.0,21,45,0.0,16418,248051927134330,1000000000,11.010000228881836,-218.7764813058982,299792458,16,-4681.376562205589,340282346638528860000000000000000000000,1176450050,,,,1,,5,27.430871963500977,7.0,31.46123993932331,11.506922879693287,31.46123993932331,1.5000000237487257,Q,177043724778744
Raw,1715115248000,191496000000,,,-1399150274504301587,0.0,12.084125011147599,108.0,1.0,21,4,0.0,85026,248065915115764,17,39.28232192993164,-212.7507541163501,0.15,25,-5622.555229379956,0.0014782556099817157,1575420030,,,,2,,6,33.75603485107422,35.77232360839844,4.132744078630793,1.5000000237487257,4.132744078630793,1.5000000237487257,C,177043724778744
Raw,1715115248000,191496000000,,,-1399150274504301587,0.0,12.084125011147599,108.0,1.0,21,10,0.0,85026,248065915204432,16,40.231143951416016,205.06896036435865,0.15,25,4254.514073838678,0.0013252822682261467,1575420030,,,,2,,6,33.75603485107422,36.72114562988281,0.4074537056114942,1.5000000237487257,0.4074537056114942,1.5000000237487257,C,177043724778744
Raw,1715115248000,191496000000,,,-1399150274504301587,0.0,12.084125011147599,108.0,1.0,21,11,0.0,85026,248065915606781,28,33.2239875793457,-54.012364688341705,0.6130953312562779,25,-1400.5367386054015,0.0027995617128908634,1575420030,,,,2,,6,33.75603485107422,29.713987350463867,13.678799702672972,1.5000000237487257,13.678799702672972,1.5000000237487257,C,177043724778744
Raw,1715115248000,191496000000,,,-1399150274504301587,0.0,12.084125011147599,108.0,1.0,21,12,0.0,85026,248065914939528,42,28.1397762298584,411.6437859052646,0.842325945752953,25,8554.544824473624,0.005026904866099358,1575420030,,,,2,,6,33.75603485107422,24.629776000976562,11.350493840847452,1.5000000237487257,11.350493840847452,1.5000000237487257,C,177043724778744
Raw,1715115248000,191496000000,,,-1399150274504301587,0.0,12.084125011147599,108.0,1.0,21,19,0.0,85026,248065919936706,31,31.82196044921875,112.1590932445688,0.6762022613058583,25,2341.2785657121885,0.0032899659126996994,1575420030,,,,2,,6,33.75603485107422,28.311960220336914,4.831235837178449,1.5000000237487257,4.831235837178449,1.5000000237487257,C,177043724778744
Raw,1715115248000,191496000000,,,-1399150274504301587,0.0,12.084125011147599,108.0,1.0,21,21,0.0,85026,248065916231602,27,33.49311828613281,-161.9432181988401,0.6011050964246341,25,-3369.5697724199345,0.0027141475584357977,1575420030,,,,2,,6,33.75603485107422,29.98311996459961,-1.6880221664905546,1.5000000237487257,-1.6880221664905546,1.5000000237487257,C,177043724778744
Raw,1715115248000,191496000000,,,-1399150274504301587,0.0,12.084125011147599,108.0,1.0,21,27,0.0,84002,248065909054558,1000000000,15.578629493713379,297.22901344064667,299792458,16,5301.198118911132,340282346638528860000000000000000000000,1575420030,,,,1,,6,33.75603485107422,12.068629264831543,-0.9895302588281285,1.5000000237487257,-0.9895302588281285,1.5000000237487257,C,177043724778744
Raw,1715115248000,191496000000,,,-1399150274504301587,0.0,12.084125011147599,108.0,1.0,21,33,0.0,83968,248065908239750,1000000000,16.610275268554688,603.5551116816227,299792458,16,10876.367323479046,340282346638528860000000000000000000000,1575420030,,,,1,,6,33.75603485107422,13.100275039672852,4.132744078630793,1.5000000237487257,4.132744078630793,1.5000000237487257,C,177043724778744
Raw,1715115248000,191496000000,,,-1399150274504301587,0.0,12.084125011147599,108.0,1.0,21,4,0.0,16418,248065915115701,1000000000,11.010000228881836,-211.939642774792,299792458,16,-5402.227604461462,340282346638528860000000000000000000000,1176450050,,,,2,,6,27.430871963500977,7.0,8.750357716935055,11.506922879693287,8.750357716935055,1.5000000237487257,Q,177043724778744
Raw,1715115248000,191496000000,,,-1399150274504301587,0.0,12.084125011147599,108.0,1.0,21,10,0.0,84003,248065915204373,8,16.783077239990234,204.79379565162174,1.3769948818583284,16,2909.5174150159733,340282346638528860000000000000000000000,1176450050,,,,2,,6,27.430871963500977,12.773077011108398,2.069794512014787,11.506922879693287,2.069794512014787,1.5000000237487257,Q,177043724778744
Raw,1715115248000,191496000000,,,-1399150274504301587,0.0,12.084125011147599,108.0,1.0,21,11,0.0,84003,248065915606716,46,13.824455261230469,-54.50287088200386,299.7952520045317,16,-1377.0374163119625,340282346638528860000000000000000000000,1176450050,,,,2,,6,27.430871963500977,9.814455032348633,25.869300407641546,11.506922879693287,25.869300407641546,1.5000000237487257,Q,177043724778744
Raw,1715115248000,191496000000,,,-1399150274504301587,0.0,12.084125011147599,108.0,1.0,21,12,0.0,84003,248065914939480,6,20.73578453063965,410.97607649952624,1.1991985551578521,29,6841.920638809523,0.011825188994407654,1176450050,,,,2,,6,27.430871963500977,16.725784301757812,21.6939484542713,11.506922879693287,21.6939484542713,1.5000000237487257,Q,177043724778744
Raw,1715115248000,191496000000,,,-1399150274504301587,0.0,12.084125011147599,108.0,1.0,21,19,0.0,84003,248065919936672,46,14.268007278442383,111.878134514223,299.7960359010317,16,1149.881266871644,340282346638528860000000000000000000000,1176450050,,,,2,,6,27.430871963500977,10.258007049560547,10.002963143890373,11.506922879693287,10.002963143890373,1.5000000237487257,Q,177043724778744
Raw,1715115248000,191496000000,,,-1399150274504301587,0.0,12.084125011147599,108.0,1.0,21,21,0.0,16418,248065916231510,1000000000,11.010000228881836,-161.71213914361545,299792458,16,-4057.4427164777026,340282346638528860000000000000000000000,1176450050,,,,1,,6,27.430871963500977,7.0,-1.6880221664905546,11.506922879693287,-1.6880221664905546,1.5000000237487257,Q,177043724778744
Raw,1715115248000,191496000000,,,-1399150274504301587,0.0,12.084125011147599,108.0,1.0,21,27,0.0,16418,248065909054500,1000000000,11.010000228881836,297.0944218198381,299792458,16,3625.3455483521975,340282346638528860000000000000000000000,1176450050,,,,1,,6,27.430871963500977,7.0,-0.43541654071554237,11.506922879693287,-0.43541654071554237,1.5000000237487257,Q,177043724778744
Raw,1715115248000,191496000000,,,-1399150274504301587,0.0,12.084125011147599,108.0,1.0,21,33,0.0,16418,248065908239691,1000000000,11.010000228881836,604.1987929555125,299792458,16,8955.62239935553,340282346638528860000000000000000000000,1176450050,,,,1,,6,27.430871963500977,7.0,8.750357716935055,11.506922879693287,8.750357716935055,1.5000000237487257,Q,177043724778744
Raw,1715115248000,191496000000,,,-1399150274504301587,0.0,12.084125011147599,108.0,1.0,21,3,0.0,16384,248065870970712,1000000000,15.290092468261719,51.46278392508222,299792458,16,51.018978775809295,340282346638528860000000000000000000000,1176450050,,,,0,,7,,11.780092239379883,-32.73082542381222,1.5000000237487257,-32.73082542381222,1.5000000237487257,C,177043724778744
Raw,1715115248000,191496000000,,,-1399150274504301587,0.0,12.084125011147599,108.0,1.0,21,9,0.0,16384,248065878715283,1000000000,12.877830505371094,90.24691106490724,299792458,16,2038.6271521705978,340282346638528860000000000000000000000,1176450050,,,,1,,7,,9.367830276489258,-30.641389892834837,1.5000000237487257,-30.641389892834837,1.5000000237487257,C,177043724778744
Agc,1715115248000,191496000000,,,-1399150274504301587,0.0,12.084125011147599,108.0,1.0,21,33.296356201171875,1575420000,1
Agc,1715115248000,191496000000,,,-1399150274504301587,0.0,12.084125011147599,108.0,1.0,21,27.057228088378906,1176450000,1
Agc,1715115248000,191496000000,,,-1399150274504301587,0.0,12.084125011147599,108.0,1.0,21,49.79810333251953,1602000000,3
Agc,1715115248000,191496000000,,,-1399150274504301587,0.0,12.084125011147599,108.0,1.0,21,33.296356201171875,1575420000,6
Agc,1715115248000,191496000000,,,-1399150274504301587,0.0,12.084125011147599,108.0,1.0,21,27.057228088378906,1176450000,6
Agc,1715115248000,191496000000,,,-1399150274504301587,0.0,12.084125011147599,108.0,1.0,21,48.256744384765625,1561096000,5
Agc,1715115248000,191496000000,,,-1399150274504301587,0.0,12.084125011147599,108.0,1.0,21,33.296356201171875,1575420000,5
Agc,1715115248000,191496000000,,,-1399150274504301587,0.0,12.084125011147599,108.0,1.0,21,27.057228088378906,1176450000,5
Fix,FLP,32.0740783000,34.9075177000,71.4000015258789,0.021802898,4.458,,1715115250192,0.02373436,,177043674600888,1.9412433,0,,,
Status,1715115248000,39,0,3,10,1598062460,18.26,92.0,68.0,0,1,1,14.745098
Status,1715115248000,39,1,5,45,1561097980,17.43,164.0,67.0,0,1,1,13.917465
Status,1715115248000,39,2,5,22,1561097980,32.14,69.0,64.0,1,1,1,28.634819
Status,1715115248000,39,3,5,22,1176450050,16.62,69.0,64.0,0,1,1,12.608685
Status,1715115248000,39,4,1,7,1575420030,48.94,238.0,61.0,1,1,1,45.433746
Status,1715115248000,39,5,1,9,1575420030,41.99,346.0,59.0,1,1,1,38.481438
Status,1715115248000,39,6,1,9,1176450050,24.72,346.0,59.0,0,1,1,20.712835
Status,1715115248000,39,7,7,9,1176450050,15.38,124.0,58.0,0,1,1,11.868462
Status,1715115248000,39,8,6,19,1575420030,32.50,30.0,57.0,1,1,1,28.989008
Status,1715115248000,39,9,3,8,1605374980,39.85,0.0,50.0,1,1,1,36.3444
Status,1715115248000,39,10,5,21,1561097980,44.52,324.0,45.0,1,1,1,41.005424
Status,1715115248000,39,11,5,36,1561097980,27.60,54.0,45.0,0,1,1,24.087347
Status,1715115248000,39,12,5,21,1176450050,18.56,324.0,45.0,0,1,1,14.552153
Status,1715115248000,39,13,5,36,1176450050,16.00,54.0,45.0,0,1,1,11.990402
Status,1715115248000,39,14,1,4,1575420030,28.28,55.0,44.0,0,1,1,24.770723
Status,1715115248000,39,15,1,4,1176450050,13.97,55.0,44.0,0,1,1,9.957272
Status,1715115248000,39,16,6,21,1575420030,35.36,99.0,41.0,1,1,1,31.8498
Status,1715115248000,39,17,6,21,1176450050,14.54,99.0,41.0,0,1,1,10.534821
Status,1715115248000,39,18,6,12,1575420030,28.72,238.0,38.0,0,1,1,25.213192
Status,1715115248000,39,19,6,12,1176450050,23.16,238.0,38.0,0,1,1,19.145609
Status,1715115248000,39,20,1,3,1575420030,26.16,137.0,37.0,0,1,1,22.64514
Status,1715115248000,39,21,6,10,1575420030,41.97,270.0,37.0,1,1,1,38.45857
Status,1715115248000,39,22,6,10,1176450050,21.31,270.0,37.0,0,1,1,17.297993
Status,1715115248000,39,23,6,4,1575420030,39.77,298.0,36.0,1,1,1,36.259754
Status,1715115248000,39,24,1,6,1575420030,43.97,268.0,35.0,1,1,1,40.46092
Status,1715115248000,39,25,7,3,1176450050,15.27,114.0,28.0,0,1,1,11.760843
Status,1715115248000,39,26,1,30,1575420030,46.21,231.0,27.0,1,1,1,42.70339
Status,1715115248000,39,27,1,30,1176450050,23.56,231.0,27.0,0,1,1,19.554356
Status,1715115248000,39,28,1,16,1575420030,21.78,65.0,26.0,0,1,1,18.268707
Status,1715115248000,39,29,6,11,1575420030,37.86,300.0,26.0,1,1,1,34.351364
Status,1715115248000,39,30,6,11,1176450050,19.01,300.0,26.0,0,1,1,14.998963
Status,1715115248000,39,31,5,19,1561097980,19.60,111.0,19.0,0,1,1,16.08979
Status,1715115248000,39,32,5,19,1176450050,14.44,111.0,19.0,0,1,1,10.425419
Status,1715115248000,39,33,1,11,1575420030,44.91,307.0,18.0,1,1,1,41.395172
Status,1715115248000,39,34,5,26,1561097980,12.72,207.0,18.0,0,1,1,9.210926
Status,1715115248000,39,35,6,27,1575420030,17.46,46.0,16.0,0,1,1,13.954044
Status,1715115248000,39,36,5,16,1561097980,14.38,50.0,12.0,0,1,1,10.86657
Status,1715115248000,39,37,6,33,1575420030,17.58,186.0,12.0,0,1,1,14.07071
Status,1715115248000,39,38,5,7,1561097980,27.97,96.0,10.0,0,1,1,24.461
Status,1715115248000,39,0,3,10,1598062460,18.26,92.0,68.0,0,1,1,14.745098
Status,1715115248000,39,1,5,45,1561097980,17.43,164.0,67.0,0,1,1,13.917465
Status,1715115248000,39,2,5,22,1561097980,32.14,69.0,64.0,1,1,1,28.634819
Status,1715115248000,39,3,5,22,1176450050,16.62,69.0,64.0,0,1,1,12.608685
Status,1715115248000,39,4,1,7,1575420030,48.94,238.0,61.0,1,1,1,45.433746
Status,1715115248000,39,5,1,9,1575420030,41.99,346.0,59.0,1,1,1,38.481438
Status,1715115248000,39,6,1,9,1176450050,24.72,346.0,59.0,0,1,1,20.712835
Status,1715115248000,39,7,7,9,1176450050,15.38,124.0,58.0,0,1,1,11.868462
Status,1715115248000,39,8,6,19,1575420030,32.50,30.0,57.0,1,1,1,28.989008
Status,1715115248000,39,9,3,8,1605374980,39.85,0.0,50.0,1,1,1,36.3444
Status,1715115248000,39,10,5,21,1561097980,44.52,324.0,45.0,1,1,1,41.005424
Status,1715115248000,39,11,5,36,1561097980,27.60,54.0,45.0,0,1,1,24.087347
Status,1715115248000,39,12,5,21,1176450050,18.56,324.0,45.0,0,1,1,14.552153
Status,1715115248000,39,13,5,36,1176450050,16.00,54.0,45.0,0,1,1,11.990402
Status,1715115248000,39,14,1,4,1575420030,28.28,55.0,44.0,0,1,1,24.770723
Status,1715115248000,39,15,1,4,1176450050,13.97,55.0,44.0,0,1,1,9.957272
Status,1715115248000,39,16,6,21,1575420030,35.36,99.0,41.0,1,1,1,31.8498
Status,1715115248000,39,17,6,21,1176450050,14.54,99.0,41.0,0,1,1,10.534821
Status,1715115248000,39,18,6,12,1575420030,28.72,238.0,38.0,0,1,1,25.213192
Status,1715115248000,39,19,6,12,1176450050,23.16,238.0,38.0,0,1,1,19.145609
Status,1715115248000,39,20,1,3,1575420030,26.16,137.0,37.0,0,1,1,22.64514
Status,1715115248000,39,21,6,10,1575420030,41.97,270.0,37.0,1,1,1,38.45857
Status,1715115248000,39,22,6,10,1176450050,21.31,270.0,37.0,0,1,1,17.297993
Status,1715115248000,39,23,6,4,1575420030,39.77,298.0,36.0,1,1,1,36.259754
Status,1715115248000,39,24,1,6,1575420030,43.97,268.0,35.0,1,1,1,40.46092
Status,1715115248000,39,25,7,3,1176450050,15.27,114.0,28.0,0,1,1,11.760843
Status,1715115248000,39,26,1,30,1575420030,46.21,231.0,27.0,1,1,1,42.70339
Status,1715115248000,39,27,1,30,1176450050,23.56,231.0,27.0,0,1,1,19.554356
Status,1715115248000,39,28,1,16,1575420030,21.78,65.0,26.0,0,1,1,18.268707
Status,1715115248000,39,29,6,11,1575420030,37.86,300.0,26.0,1,1,1,34.351364
Status,1715115248000,39,30,6,11,1176450050,19.01,300.0,26.0,0,1,1,14.998963
Status,1715115248000,39,31,5,19,1561097980,19.60,111.0,19.0,0,1,1,16.08979
Status,1715115248000,39,32,5,19,1176450050,14.44,111.0,19.0,0,1,1,10.425419
Status,1715115248000,39,33,1,11,1575420030,44.91,307.0,18.0,1,1,1,41.395172
Status,1715115248000,39,34,5,26,1561097980,12.72,207.0,18.0,0,1,1,9.210926
Status,1715115248000,39,35,6,27,1575420030,17.46,46.0,16.0,0,1,1,13.954044
Status,1715115248000,39,36,5,16,1561097980,14.38,50.0,12.0,0,1,1,10.86657
Status,1715115248000,39,37,6,33,1575420030,17.58,186.0,12.0,0,1,1,14.07071
Status,1715115248000,39,38,5,7,1561097980,27.97,96.0,10.0,0,1,1,24.461
Fix,GPS,32.0740786584,34.9075185989,66.657722990972,0.017829128,2.9331427,287.5829,1715115249000,0.026940765,180.0,177044688373309,3.5794613,0,,,
Raw,1715115249000,192496000000,,,-1399150274504301479,0.0,12.177636275485337,108.0,1.0,21,3,0.0,16431,248066926202689,49,26.155139923095703,575.2961200101258,0.9314403862540557,16,12111.127439486663,340282346638528860000000000000000000000,1575420030,,,,1,,1,33.296356201171875,22.645139694213867,-0.8440110737314445,1.0,-0.8440110737314445,1.0,C,177044739024676
Raw,1715115249000,192496000000,,,-1399150274504301479,0.0,12.177636275485337,108.0,1.0,21,4,0.0,16431,248066928287625,48,26.578672409057617,282.26260584375234,0.9127696571074515,17,6147.219639044929,0.10116350246880924,1575420030,,,,1,,1,33.296356201171875,23.06867218017578,4.452885954839774,1.0,4.452885954839774,1.0,C,177044739024676
Raw,1715115249000,192496000000,,,-1399150274504301479,0.0,12.177636275485337,108.0,1.0,21,6,0.0,16431,248066925583133,11,43.970916748046875,197.3040224596798,0.15,25,4166.593673423472,0.0008616278064437211,1575420030,,,,2,,1,33.296356201171875,40.46091842651367,-2.881279299287855,1.0,-2.881279299287855,1.0,C,177044739024676
Raw,1715115249000,192496000000,,,-1399150274504301479,0.0,12.177636275485337,108.0,1.0,21,7,0.0,16431,248066929495394,9,48.7789421081543,-186.96829598317015,0.15,25,-4389.377570553326,0.0005221522878855467,1575420030,,,,2,,1,33.296356201171875,45.268943786621094,10.652002101327463,1.0,10.652002101327463,1.0,C,177044739024676
Raw,1715115249000,192496000000,,,-1399150274504301479,0.0,12.177636275485337,108.0,1.0,21,9,0.0,16431,248066930996265,15,40.75928497314453,-65.90452192595734,0.15,25,-1869.0178900182173,0.0012471002992242575,1575420030,,,,1,,1,33.296356201171875,37.24928665161133,-1.7171259707357078,1.0,-1.7171259707357078,1.0,C,177044739024676
Raw,1715115249000,192496000000,,,-1399150274504301479,0.0,12.177636275485337,108.0,1.0,21,11,0.0,16431,248066920002604,11,44.298030853271484,-230.23856480557367,0.15,25,-46520.11785514918,0.0008297823369503021,1575420030,,,,2,,1,33.296356201171875,40.78803253173828,8.643837301404483,1.0,8.643837301404483,1.0,C,177044739024676
Raw,1715115249000,192496000000,,,-1399150274504301479,0.0,12.177636275485337,108.0,1.0,21,16,0.0,16430,248066924004825,1000000000,18.501977920532227,173.8848929854763,299792458,16,4062.584042887981,340282346638528860000000000000000000000,1575420030,,,,1,,1,33.296356201171875,14.991978645324707,10.244548177868609,1.0,10.244548177868609,1.0,C,177044739024676
Raw,1715115249000,192496000000,,,-1399150274504301479,0.0,12.177636275485337,108.0,1.0,21,30,0.0,16431,248066922476151,13,45.32275390625,-492.5123893004586,0.15,25,-11865.364414784679,0.0007773322868160903,1575420030,,,,2,,1,33.296356201171875,41.8127555847168,-5.704350952030072,1.0,-5.704350952030072,1.0,C,177044739024676
Raw,1715115249000,192496000000,,,-1399150274504301479,0.0,12.177636275485337,108.0,1.0,21,3,0.0,16384,248066926203022,1000000000,11.010000228881836,574.6081315427564,299792458,16,11875.845300245968,340282346638528860000000000000000000000,1176450050,,,,1,,1,27.057228088378906,7.0,2.5320674181817084,11.00692285594456,2.5320674181817084,1.0,Q,177044739024676
Raw,1715115249000,192496000000,,,-1399150274504301479,0.0,12.177636275485337,108.0,1.0,21,4,0.0,16384,248066928287726,1000000000,13.96727180480957,281.55612764371926,299792458,16,5645.284948811053,340282346638528860000000000000000000000,1176450050,,,,1,,1,27.057228088378906,9.957271575927734,2.8813848725453908,11.00692285594456,2.8813848725453908,1.0,Q,177044739024676
Raw,1715115249000,192496000000,,,-1399150274504301479,0.0,12.177636275485337,108.0,1.0,21,6,0.0,16384,248066925583077,1000000000,11.010000228881836,196.29468755098503,299792458,16,4070.2540150731097,340282346638528860000000000000000000000,1176450050,,,,0,,1,27.057228088378906,7.0,-2.153536392074096,11.00692285594456,-2.153536392074096,1.0,Q,177044739024676
Raw,1715115249000,192496000000,,,-1399150274504301479,0.0,12.177636275485337,108.0,1.0,21,9,0.0,81921,248066930996209,6,22.614952087402344,-66.14117772313054,1.1139852911499513,25,-1428.4912020549725,0.009524665772914886,1176450050,,,,2,,1,27.057228088378906,18.604951858520508,3.4343640757788547,11.00692285594456,3.4343640757788547,1.0,Q,177044739024676
Raw,1715115249000,192496000000,,,-1399150274504301479,0.0,12.177636275485337,108.0,1.0,21,11,0.0,16384,248066920002552,1000000000,11.010000228881836,-231.29450747356339,299792458,16,-44579.4533137524,340282346638528860000000000000000000000,1176450050,,,,2,,1,27.057228088378906,7.0,10.768559749319673,11.00692285594456,10.768559749319673,1.0,Q,177044739024676
Raw,1715115249000,192496000000,,,-1399150274504301479,0.0,12.177636275485337,108.0,1.0,21,30,0.0,81921,248066922476086,6,20.165679931640625,-492.86565396231754,1.2225936320034414,16,-12346.2824011789,340282346638528860000000000000000000000,1176450050,,,,2,,1,27.057228088378906,16.15567970275879,-0.785929329757058,11.00692285594456,-0.785929329757058,1.0,Q,177044739024676
Raw,1715115249000,192496000000,,,-1399150274504301479,0.0,12.177636275485337,108.0,1.0,21,10,0.0,32768,86048935238419,1000000000,14.537662506103516,5.300765647311991,299792458,16,101.4108656704064,340282346638528860000000000000000000000,1598062460,,,,0,,3,49.79810333251953,11.02766227722168,17.695128917694092,2.0000000474974513,17.695128917694092,2.0000000474974513,C,177044739024676
Raw,1715115249000,192496000000,,,-1399150274504301479,0.0,12.177636275485337,108.0,1.0,21,8,0.0,32995,86048932394843,33,39.85439682006836,-215.9470750539723,0.15,25,-6943.257150708925,0.0013582059182226658,1605374980,,,,2,,3,49.79810333251953,36.344398498535156,11.990777170385243,2.0000000474974513,11.990777170385243,2.0000000474974513,C,177044739024676
Raw,1715115249000,192496000000,,,-1399150274504301479,0.0,12.177636275485337,108.0,1.0,21,7,0.0,81967,248052863810698,24,26.577556610107422,-277.8177934000148,0.9120144511128201,25,-5276.655119639171,0.006072644144296646,1561097980,,,,2,,5,48.256744384765625,23.067556381225586,0.895926497316772,4.8356409757302465,0.895926497316772,1.5000000237487257,I,177044739024676
Raw,1715115249000,192496000000,,,-1399150274504301479,0.0,12.177636275485337,108.0,1.0,21,9,0.0,81954,248052869744186,1000000000,10.510000228881836,147.26267720603084,299792458,16,3322.725544390009,340282346638528860000000000000000000000,1561097980,,,,1,,5,48.256744384765625,7.0,8.495926208018082,4.8356409757302465,8.495926208018082,1.5000000237487257,I,177044739024676
Raw,1715115249000,192496000000,,,-1399150274504301479,0.0,12.177636275485337,108.0,1.0,21,16,0.0,16384,248052864585058,1000000000,13.183650970458984,160.00283578408346,299792458,16,3049.852433414535,340282346638528860000000000000000000000,1561097980,,,,1,,5,48.256744384765625,9.673650741577148,18.595926304908293,4.8356409757302465,18.595926304908293,1.5000000237487257,I,177044739024676
Raw,1715115249000,192496000000,,,-1399150274504301479,0.0,12.177636275485337,108.0,1.0,21,19,0.0,16384,248052915223278,1000000000,19.43682098388672,453.026704615261,299792458,16,9530.351605997195,340282346638528860000000000000000000000,1561097980,,,,0,,5,48.256744384765625,15.926820755004883,6.095925964521342,4.8356409757302465,6.095925964521342,1.5000000237487257,I,177044739024676
Raw,1715115249000,192496000000,,,-1399150274504301479,0.0,12.177636275485337,108.0,1.0,21,21,0.0,81967,248052922444695,6,44.51542282104492,-338.2186206023698,0.15,25,722731.3874519651,0.0008166962652467191,1561097980,,,,2,,5,48.256744384765625,41.00542449951172,4.595926011155573,4.8356409757302465,4.595926011155573,1.5000000237487257,I,177044739024676
Raw,1715115249000,192496000000,,,-1399150274504301479,0.0,12.177636275485337,108.0,1.0,21,22,0.0,81967,248052926782508,20,28.878067016601562,98.08537334891992,0.8090976142294477,25,2128.972487952886,0.004659639205783606,1561097980,,,,2,,5,48.256744384765625,25.368066787719727,2.1959265629376095,4.8356409757302465,2.1959265629376095,1.5000000237487257,I,177044739024676
Raw,1715115249000,192496000000,,,-1399150274504301479,0.0,12.177636275485337,108.0,1.0,21,26,0.0,16384,248052915916833,1000000000,12.720926284790039,-593.916661141885,299792458,16,-607.9228991852611,340282346638528860000000000000000000000,1561097980,,,,0,,5,48.256744384765625,9.210926055908203,20.695926120328554,4.8356409757302465,20.695926120328554,1.5000000237487257,I,177044739024676
Raw,1715115249000,192496000000,,,-1399150274504301479,0.0,12.177636275485337,108.0,1.0,21,36,0.0,81967,248052923558237,23,26.721960067749023,365.33087394170025,0.9054755454404848,16,7950.815649896487,340282346638528860000000000000000000000,1561097980,,,,1,,5,48.256744384765625,23.211959838867188,36.095925827115494,4.8356409757302465,36.095925827115494,1.5000000237487257,I,177044739024676
Raw,1715115249000,192496000000,,,-1399150274504301479,0.0,12.177636275485337,108.0,1.0,21,45,0.0,16384,248052927134954,1000000000,17.427465438842773,-219.5792424456082,299792458,16,-4781.5065662740735,340282346638528860000000000000000000000,1561097980,,,,0,,5,48.256744384765625,13.917465209960938,-3.9040739896767107,4.8356409757302465,-3.9040739896767107,1.5000000237487257,I,177044739024676
Raw,1715115249000,192496000000,,,-1399150274504301479,0.0,12.177636275485337,108.0,1.0,21,19,0.0,16418,248052915223353,1000000000,14.435419082641602,453.09878901080674,299792458,16,8259.456438752952,340282346638528860000000000000000000000,1176450050,,,,1,,5,27.057228088378906,10.425418853759766,21.216692556733477,11.506922879693287,21.216692556733477,1.5000000237487257,Q,177044739024676
Raw,1715115249000,192496000000,,,-1399150274504301479,0.0,12.177636275485337,108.0,1.0,21,21,0.0,81959,248052922444675,31,18.15779685974121,-338.48436151587816,299.7964789729665,16,-54664.54819621706,340282346638528860000000000000000000000,1176450050,,,,1,,5,27.057228088378906,14.147796630859375,22.20622294564871,11.506922879693287,22.20622294564871,1.5000000237487257,Q,177044739024676
Raw,1715115249000,192496000000,,,-1399150274504301479,0.0,12.177636275485337,108.0,1.0,21,22,0.0,81959,248052926782475,35,16.618684768676758,97.55378075391951,299.7972628694665,16,1447.738174410002,340282346638528860000000000000000000000,1176450050,,,,1,,5,27.057228088378906,12.608684539794922,26.39717429221342,11.506922879693287,26.39717429221342,1.5000000237487257,Q,177044739024676
Raw,1715115249000,192496000000,,,-1399150274504301479,0.0,12.177636275485337,108.0,1.0,21,36,0.0,16418,248052923558488,1000000000,16.000402450561523,365.3657743771796,299792458,16,6798.482373058183,340282346638528860000000000000000000000,1176450050,,,,1,,5,27.057228088378906,11.990402221679688,25.349436654391937,11.506922879693287,25.349436654391937,1.5000000237487257,Q,177044739024676
Raw,1715115249000,192496000000,,,-1399150274504301479,0.0,12.177636275485337,108.0,1.0,21,45,0.0,16418,248052927135065,1000000000,11.010000228881836,-219.4854134428009,299792458,16,-4900.582282856252,340282346638528860000000000000000000000,1176450050,,,,1,,5,27.057228088378906,7.0,31.46123993932331,11.506922879693287,31.46123993932331,1.5000000237487257,Q,177044739024676
Raw,1715115249000,192496000000,,,-1399150274504301479,0.0,12.177636275485337,108.0,1.0,21,4,0.0,85026,248066915116472,16,39.769752502441406,-212.39518888867588,0.15,25,-5835.101333837289,0.001397584448568523,1575420030,,,,2,,6,33.296356201171875,36.2597541809082,4.132744078630793,1.5000000237487257,4.132744078630793,1.5000000237487257,C,177044739024676
Raw,1715115249000,192496000000,,,-1399150274504301479,0.0,12.177636275485337,108.0,1.0,21,10,0.0,85026,248066915203746,15,40.58377456665039,205.44952507389235,0.15,25,4459.78905864554,0.0012725559063255787,1575420030,,,,2,,6,33.296356201171875,37.07377624511719,0.4074537056114942,1.5000000237487257,0.4074537056114942,1.5000000237487257,C,177044739024676
Raw,1715115249000,192496000000,,,-1399150274504301479,0.0,12.177636275485337,108.0,1.0,21,11,0.0,85026,248066915606965,28,32.91919708251953,-53.65292684154508,0.6268014713257899,25,-1454.3176555887264,0.002899543382227421,1575420030,,,,2,,6,33.296356201171875,29.409196853637695,13.678799702672972,1.5000000237487257,13.678799702672972,1.5000000237487257,C,177044739024676
Raw,1715115249000,192496000000,,,-1399150274504301479,0.0,12.177636275485337,108.0,1.0,21,12,0.0,85026,248066914938160,59,25.6107234954834,412.0283382622115,299.79371829398815,16,8966.466669256173,340282346638528860000000000000000000000,1575420030,,,,1,,6,33.296356201171875,22.100723266601562,11.350493840847452,1.5000000237487257,11.350493840847452,1.5000000237487257,C,177044739024676
Raw,1715115249000,192496000000,,,-1399150274504301479,0.0,12.177636275485337,108.0,1.0,21,19,0.0,85026,248066919936339,29,32.49900817871094,112.58712629542464,0.6457561765652189,25,2453.6924713624358,0.003043259959667921,1575420030,,,,2,,6,33.296356201171875,28.9890079498291,4.831235837178449,1.5000000237487257,4.831235837178449,1.5000000237487257,C,177044739024676
Raw,1715115249000,192496000000,,,-1399150274504301479,0.0,12.177636275485337,108.0,1.0,21,21,0.0,85026,248066916232145,29,32.533329010009766,-161.51105265013086,0.6442658678999207,25,-3531.249153053757,0.003031258238479495,1575420030,,,,2,,6,33.296356201171875,29.023330688476562,-1.6880221664905546,1.5000000237487257,-1.6880221664905546,1.5000000237487257,C,177044739024676
Raw,1715115249000,192496000000,,,-1399150274504301479,0.0,12.177636275485337,108.0,1.0,21,27,0.0,83968,248066909053565,1000000000,16.086368560791016,297.0433662999669,299792458,16,5598.205096660706,340282346638528860000000000000000000000,1575420030,,,,1,,6,33.296356201171875,12.576369285583496,-0.9895302588281285,1.5000000237487257,-0.9895302588281285,1.5000000237487257,C,177044739024676
Raw,1715115249000,192496000000,,,-1399150274504301479,0.0,12.177636275485337,108.0,1.0,21,33,0.0,83968,248066908237737,1000000000,16.716480255126953,603.3694986233995,299792458,16,11479.709977764851,340282346638528860000000000000000000000,1575420030,,,,1,,6,33.296356201171875,13.206480979919434,4.132744078630793,1.5000000237487257,4.132744078630793,1.5000000237487257,C,177044739024676
Raw,1715115249000,192496000000,,,-1399150274504301479,0.0,12.177636275485337,108.0,1.0,21,4,0.0,16418,248066915116423,1000000000,11.010000228881836,-211.939642774792,299792458,16,-5615.085609479485,340282346638528860000000000000000000000,1176450050,,,,2,,6,27.057228088378906,7.0,8.750357716935055,11.506922879693287,8.750357716935055,1.5000000237487257,Q,177044739024676
Raw,1715115249000,192496000000,,,-1399150274504301479,0.0,12.177636275485337,108.0,1.0,21,10,0.0,84003,248066915203698,21,18.366012573242188,204.71934252534766,299.79518383961863,16,3113.949734940153,340282346638528860000000000000000000000,1176450050,,,,2,,6,27.057228088378906,14.356013298034668,2.069794512014787,11.506922879693287,2.069794512014787,1.5000000237487257,Q,177044739024676
Raw,1715115249000,192496000000,,,-1399150274504301479,0.0,12.177636275485337,108.0,1.0,21,11,0.0,84003,248066915606894,47,15.305902481079102,-54.52228510130067,299.7952520045317,16,-1431.876997429063,340282346638528860000000000000000000000,1176450050,,,,2,,6,27.057228088378906,11.295902252197266,25.869300407641546,11.506922879693287,25.869300407641546,1.5000000237487257,Q,177044739024676
Raw,1715115249000,192496000000,,,-1399150274504301479,0.0,12.177636275485337,108.0,1.0,21,12,0.0,84003,248066914938103,17,22.182756423950195,411.72674260444114,1.1341296871373796,16,7253.5908933058045,340282346638528860000000000000000000000,1176450050,,,,2,,6,27.057228088378906,18.17275619506836,21.6939484542713,11.506922879693287,21.6939484542713,1.5000000237487257,Q,177044739024676
Raw,1715115249000,192496000000,,,-1399150274504301479,0.0,12.177636275485337,108.0,1.0,21,19,0.0,16418,248066919936282,1000000000,11.010000228881836,111.71789584488101,299792458,16,1260.3507807929707,340282346638528860000000000000000000000,1176450050,,,,1,,6,27.057228088378906,7.0,10.002963143890373,11.506922879693287,10.002963143890373,1.5000000237487257,Q,177044739024676
Raw,1715115249000,192496000000,,,-1399150274504301479,0.0,12.177636275485337,108.0,1.0,21,21,0.0,16418,248066916232055,1000000000,11.601678848266602,-161.7024426847347,299792458,16,-4221.897327545385,340282346638528860000000000000000000000,1176450050,,,,1,,6,27.057228088378906,7.591678619384766,-1.6880221664905546,11.506922879693287,-1.6880221664905546,1.5000000237487257,Q,177044739024676
Raw,1715115249000,192496000000,,,-1399150274504301479,0.0,12.177636275485337,108.0,1.0,21,27,0.0,16418,248066909053498,1000000000,11.010000228881836,297.0944218198381,299792458,16,3922.396687123086,340282346638528860000000000000000000000,1176450050,,,,1,,6,27.057228088378906,7.0,-0.43541654071554237,11.506922879693287,-0.43541654071554237,1.5000000237487257,Q,177044739024676
Raw,1715115249000,192496000000,,,-1399150274504301479,0.0,12.177636275485337,108.0,1.0,21,33,0.0,16418,248066908237679,1000000000,11.010000228881836,603.1985410214811,299792458,16,9558.813016515343,340282346638528860000000000000000000000,1176450050,,,,0,,6,27.057228088378906,7.0,8.750357716935055,11.506922879693287,8.750357716935055,1.5000000237487257,Q,177044739024676
Raw,1715115249000,192496000000,,,-1399150274504301479,0.0,12.177636275485337,108.0,1.0,21,3,0.0,16384,248066870970541,1000000000,15.097600936889648,51.46278392508222,299792458,16,51.02018611383045,340282346638528860000000000000000000000,1176450050,,,,0,,7,,11.587600708007812,-32.73082542381222,1.5000000237487257,-32.73082542381222,1.5000000237487257,C,177044739024676
Raw,1715115249000,192496000000,,,-1399150274504301479,0.0,12.177636275485337,108.0,1.0,21,9,0.0,16384,248066878714982,1000000000,13.18144416809082,89.99830510641573,299792458,16,2128.620994900516,340282346638528860000000000000000000000,1176450050,,,,1,,7,,9.671443939208984,-30.641389892834837,1.5000000237487257,-30.641389892834837,1.5000000237487257,C,177044739024676
Agc,1715115249000,192496000000,,,-1399150274504301479,0.0,12.177636275485337,108.0,1.0,21,33.20142364501953,1575420000,1
Agc,1715115249000,192496000000,,,-1399150274504301479,0.0,12.177636275485337,108.0,1.0,21,22.492671966552734,1176450000,1
Agc,1715115249000,192496000000,,,-1399150274504301479,0.0,12.177636275485337,108.0,1.0,21,48.42378616333008,1602000000,3
Agc,1715115249000,192496000000,,,-1399150274504301479,0.0,12.177636275485337,108.0,1.0,21,33.20142364501953,1575420000,6
Agc,1715115249000,192496000000,,,-1399150274504301479,0.0,12.177636275485337,108.0,1.0,21,22.492671966552734,1176450000,6
Agc,1715115249000,192496000000,,,-1399150274504301479,0.0,12.177636275485337,108.0,1.0,21,47.2757568359375,1561096000,5
Agc,1715115249000,192496000000,,,-1399150274504301479,0.0,12.177636275485337,108.0,1.0,21,33.20142364501953,1575420000,5
Agc,1715115249000,192496000000,,,-1399150274504301479,0.0,12.177636275485337,108.0,1.0,21,22.492671966552734,1176450000,5
Fix,FLP,32.0740786000,34.9075182000,71.4000015258789,0.017830461,4.297,,1715115251205,0.026940765,,177044688373309,1.8751712,0,,,
Status,1715115249000,41,0,3,10,1598062460,17.94,92.0,68.0,0,1,1,14.428808
Status,1715115249000,41,1,5,45,1561097980,20.27,164.0,67.0,0,1,1,16.759495
Status,1715115249000,41,2,5,22,1561097980,31.94,69.0,64.0,1,1,1,28.433851
Status,1715115249000,41,3,5,22,1176450050,16.54,69.0,64.0,0,1,1,12.533351
Status,1715115249000,41,4,1,7,1575420030,48.90,238.0,61.0,1,1,1,45.38743
Status,1715115249000,41,5,1,9,1575420030,41.75,346.0,59.0,1,1,1,38.240593
Status,1715115249000,41,6,1,9,1176450050,24.59,346.0,59.0,1,1,1,20.579601
Status,1715115249000,41,7,7,9,1176450050,15.07,124.0,58.0,0,1,1,11.562738
Status,1715115249000,41,8,6,19,1575420030,32.75,30.0,57.0,1,1,1,29.24002
Status,1715115249000,41,9,6,19,1176450050,16.41,30.0,57.0,0,1,1,12.403612
Status,1715115249000,41,10,3,8,1605374980,40.23,0.0,50.0,1,1,1,36.723362
Status,1715115249000,41,11,5,21,1561097980,45.17,324.0,45.0,1,1,1,41.66015
Status,1715115249000,41,12,5,36,1561097980,27.39,54.0,45.0,0,1,1,23.881924
Status,1715115249000,41,13,5,21,1176450050,18.02,324.0,45.0,0,1,1,14.006563
Status,1715115249000,41,14,5,36,1176450050,15.73,54.0,45.0,0,1,1,11.716758
Status,1715115249000,41,15,1,4,1575420030,28.19,55.0,44.0,0,1,1,24.684742
Status,1715115249000,41,16,1,4,1176450050,14.70,55.0,44.0,0,1,1,10.685394
Status,1715115249000,41,17,6,21,1575420030,35.07,99.0,41.0,1,1,1,31.555561
Status,1715115249000,41,18,6,12,1575420030,27.97,238.0,38.0,1,1,1,24.463137
Status,1715115249000,41,19,6,12,1176450050,23.12,238.0,38.0,1,1,1,19.11351
Status,1715115249000,41,20,1,3,1575420030,26.23,137.0,37.0,0,1,1,22.718775
Status,1715115249000,41,21,6,10,1575420030,41.83,270.0,37.0,1,1,1,38.320686
Status,1715115249000,41,22,6,10,1176450050,21.26,270.0,37.0,0,1,1,17.24613
Status,1715115249000,41,23,6,4,1575420030,39.87,298.0,36.0,1,1,1,36.356213
Status,1715115249000,41,24,6,4,1176450050,17.58,298.0,36.0,0,1,1,13.565794
Status,1715115249000,41,25,1,6,1575420030,44.47,268.0,35.0,1,1,1,40.956696
Status,1715115249000,41,26,5,9,1561097980,18.29,45.0,31.0,0,1,1,14.783296
Status,1715115249000,41,27,7,3,1176450050,15.26,114.0,28.0,0,1,1,11.753251
Status,1715115249000,41,28,1,30,1575420030,46.00,231.0,27.0,1,1,1,42.49276
Status,1715115249000,41,29,1,30,1176450050,23.18,231.0,27.0,0,1,1,19.16953
Status,1715115249000,41,30,1,16,1575420030,21.37,65.0,26.0,0,1,1,17.862755
Status,1715115249000,41,31,6,11,1575420030,37.42,300.0,26.0,1,1,1,33.90897
Status,1715115249000,41,32,6,11,1176450050,18.33,300.0,26.0,0,1,1,14.323638
Status,1715115249000,41,33,5,19,1561097980,19.49,111.0,19.0,0,1,1,15.976908
Status,1715115249000,41,34,5,19,1176450050,15.01,111.0,19.0,0,1,1,10.999424
Status,1715115249000,41,35,1,11,1575420030,44.82,307.0,18.0,1,1,1,41.30635
Status,1715115249000,41,36,5,26,1561097980,13.11,207.0,18.0,0,1,1,9.602291
Status,1715115249000,41,37,6,27,1575420030,17.40,46.0,16.0,0,1,1,13.891269
Status,1715115249000,41,38,6,27,1176450050,11.90,46.0,16.0,0,1,1,7.889525
Status,1715115249000,41,39,6,33,1575420030,17.50,186.0,12.0,0,1,1,13.992157
Status,1715115249000,41,40,5,7,1561097980,27.88,96.0,10.0,0,1,1,24.369009
Status,1715115249000,41,0,3,10,1598062460,17.94,92.0,68.0,0,1,1,14.428808
Status,1715115249000,41,1,5,45,1561097980,20.27,164.0,67.0,0,1,1,16.759495
Status,1715115249000,41,2,5,22,1561097980,31.94,69.0,64.0,1,1,1,28.433851
Status,1715115249000,41,3,5,22,1176450050,16.54,69.0,64.0,0,1,1,12.533351
Status,1715115249000,41,4,1,7,1575420030,48.90,238.0,61.0,1,1,1,45.38743
Status,1715115249000,41,5,1,9,1575420030,41.75,346.0,59.0,1,1,1,38.240593
Status,1715115249000,41,6,1,9,1176450050,24.59,346.0,59.0,1,1,1,20.579601
Status,1715115249000,41,7,7,9,1176450050,15.07,124.0,58.0,0,1,1,11.562738
Status,1715115249000,41,8,6,19,1575420030,32.75,30.0,57.0,1,1,1,29.24002
Status,1715115249000,41,9,6,19,1176450050,16.41,30.0,57.0,0,1,1,12.403612
Status,1715115249000,41,10,3,8,1605374980,40.23,0.0,50.0,1,1,1,36.723362
Status,1715115249000,41,11,5,21,1561097980,45.17,324.0,45.0,1,1,1,41.66015
Status,1715115249000,41,12,5,36,1561097980,27.39,54.0,45.0,0,1,1,23.881924
Status,1715115249000,41,13,5,21,1176450050,18.02,324.0,45.0,0,1,1,14.006563
Status,1715115249000,41,14,5,36,1176450050,15.73,54.0,45.0,0,1,1,11.716758
Status,1715115249000,41,15,1,4,1575420030,28.19,55.0,44.0,0,1,1,24.684742
Status,1715115249000,41,16,1,4,1176450050,14.70,55.0,44.0,0,1,1,10.685394
Status,1715115249000,41,17,6,21,1575420030,35.07,99.0,41.0,1,1,1,31.555561
Status,1715115249000,41,18,6,12,1575420030,27.97,238.0,38.0,1,1,1,24.463137
Status,1715115249000,41,19,6,12,1176450050,23.12,238.0,38.0,1,1,1,19.11351
Status,1715115249000,41,20,1,3,1575420030,26.23,137.0,37.0,0,1,1,22.718775
Status,1715115249000,41,21,6,10,1575420030,41.83,270.0,37.0,1,1,1,38.320686
Status,1715115249000,41,22,6,10,1176450050,21.26,270.0,37.0,0,1,1,17.24613
Status,1715115249000,41,23,6,4,1575420030,39.87,298.0,36.0,1,1,1,36.356213
Status,1715115249000,41,24,6,4,1176450050,17.58,298.0,36.0,0,1,1,13.565794
Status,1715115249000,41,25,1,6,1575420030,44.47,268.0,35.0,1,1,1,40.956696
Status,1715115249000,41,26,5,9,1561097980,18.29,45.0,31.0,0,1,1,14.783296
Status,1715115249000,41,27,7,3,1176450050,15.26,114.0,28.0,0,1,1,11.753251
Status,1715115249000,41,28,1,30,1575420030,46.00,231.0,27.0,1,1,1,42.49276
Status,1715115249000,41,29,1,30,1176450050,23.18,231.0,27.0,0,1,1,19.16953
Status,1715115249000,41,30,1,16,1575420030,21.37,65.0,26.0,0,1,1,17.862755
Status,1715115249000,41,31,6,11,1575420030,37.42,300.0,26.0,1,1,1,33.90897
Status,1715115249000,41,32,6,11,1176450050,18.33,300.0,26.0,0,1,1,14.323638
Status,1715115249000,41,33,5,19,1561097980,19.49,111.0,19.0,0,1,1,15.976908
Status,1715115249000,41,34,5,19,1176450050,15.01,111.0,19.0,0,1,1,10.999424
Status,1715115249000,41,35,1,11,1575420030,44.82,307.0,18.0,1,1,1,41.30635
Status,1715115249000,41,36,5,26,1561097980,13.11,207.0,18.0,0,1,1,9.602291
Status,1715115249000,41,37,6,27,1575420030,17.40,46.0,16.0,0,1,1,13.891269
Status,1715115249000,41,38,6,27,1176450050,11.90,46.0,16.0,0,1,1,7.889525
Status,1715115249000,41,39,6,33,1575420030,17.50,186.0,12.0,0,1,1,13.992157
Status,1715115249000,41,40,5,7,1561097980,27.88,96.0,10.0,0,1,1,24.369009
Fix,GPS,32.0740787877,34.9075188771,66.75287512621469,0.023933616,2.8361363,287.5829,1715115250000,0.023361662,180.0,177045686779722,3.5473723,0,,,
Raw,1715115250000,193496000000,,,-1399150274504301369,0.0,11.951346061957965,109.0,1.0,21,3,0.0,16431,248067926200785,49,26.228775024414062,576.2952131406355,0.9281287297510219,16,12686.632102692905,340282346638528860000000000000000000000,1575420030,,,,1,,1,33.20142364501953,22.718774795532227,-0.8440110737314445,1.0,-0.8440110737314445,1.0,C,177045737500832
Raw,1715115250000,193496000000,,,-1399150274504301369,0.0,11.951346061957965,109.0,1.0,21,4,0.0,16431,248067928286653,45,27.420900344848633,282.0691879029854,0.8748953275945848,17,6429.469119324845,0.1006074884562639,1575420030,,,,1,,1,33.20142364501953,23.910900115966797,4.452885954839774,1.0,4.452885954839774,1.0,C,177045737500832
Raw,1715115250000,193496000000,,,-1399150274504301369,0.0,11.951346061957965,109.0,1.0,21,6,0.0,16431,248067925582468,11,44.46669387817383,197.13188901301135,0.15,25,4363.9111151931675,0.0008138246485032141,1575420030,,,,2,,1,33.20142364501953,40.956695556640625,-2.881279299287855,1.0,-2.881279299287855,1.0,C,177045737500832
Raw,1715115250000,193496000000,,,-1399150274504301369,0.0,11.951346061957965,109.0,1.0,21,7,0.0,16431,248067929496023,10,48.4805793762207,-187.1009960276417,0.15,25,-4576.361403039417,0.000540400214958936,1575420030,,,,2,,1,33.20142364501953,44.9705810546875,10.652002101327463,1.0,10.652002101327463,1.0,C,177045737500832
Raw,1715115250000,193496000000,,,-1399150274504301369,0.0,11.951346061957965,109.0,1.0,21,9,0.0,16431,248067930996486,16,39.582977294921875,-66.09929890467814,0.15,25,-1934.9658053481667,0.0014279623283073306,1575420030,,,,2,,1,33.20142364501953,36.07297897338867,-1.7171259707357078,1.0,-1.7171259707357078,1.0,C,177045737500832
Raw,1715115250000,193496000000,,,-1399150274504301369,0.0,11.951346061957965,109.0,1.0,21,11,0.0,16431,248067920003372,11,44.01694869995117,-230.3483614392619,0.15,25,-46750.35202207577,0.000857073871884495,1575420030,,,,2,,1,33.20142364501953,40.50695037841797,8.643837301404483,1.0,8.643837301404483,1.0,C,177045737500832
Raw,1715115250000,193496000000,,,-1399150274504301369,0.0,11.951346061957965,109.0,1.0,21,16,0.0,16430,248067924004244,1000000000,17.719175338745117,174.14161908923438,299792458,16,4236.315669668373,340282346638528860000000000000000000000,1575420030,,,,1,,1,33.20142364501953,14.209175109863281,10.244548177868609,1.0,10.244548177868609,1.0,C,177045737500832
