# 
# Header Description:
# 
# Version: v3.0.6.4 Platform: 14 Manufacturer: Google Model: Pixel 8 Pro
# 
# Raw,utcTimeMillis,TimeNanos,LeapSecond,TimeUncertaintyNanos,FullBiasNanos,BiasNanos,BiasUncertaintyNanos,DriftNanosPerSecond,DriftUncertaintyNanosPerSecond,HardwareClockDiscontinuityCount,Svid,TimeOffsetNanos,State,ReceivedSvTimeNanos,ReceivedSvTimeUncertaintyNanos,Cn0DbHz,PseudorangeRateMetersPerSecond,PseudorangeRateUncertaintyMetersPerSecond,AccumulatedDeltaRangeState,AccumulatedDeltaRangeMeters,AccumulatedDeltaRangeUncertaintyMeters,CarrierFrequencyHz,CarrierCycles,CarrierPhase,CarrierPhaseUncertainty,MultipathIndicator,SnrInDb,ConstellationType,AgcDb,BasebandCn0DbHz,FullInterSignalBiasNanos,FullInterSignalBiasUncertaintyNanos,SatelliteInterSignalBiasNanos,SatelliteInterSignalBiasUncertaintyNanos,CodeType,ChipsetElapsedRealtimeNanos
# 
# UncalAccel,utcTimeMillis,elapsedRealtimeNanos,UncalAccelXMps2,UncalAccelYMps2,UncalAccelZMps2,BiasXMps2,BiasYMps2,BiasZMps2
# 
# Accel,utcTimeMillis,elapsedRealtimeNanos,AccelXMps2,AccelYMps2,AccelZMps2
# 
# UncalGyro,utcTimeMillis,elapsedRealtimeNanos,UncalGyroXRadPerSec,UncalGyroYRadPerSec,UncalGyroZRadPerSec,DriftXRadPerSec,DriftYRadPerSec,DriftZRadPerSec
# 
# Gyro,utcTimeMillis,elapsedRealtimeNanos,GyroXRadPerSec,GyroYRadPerSec,GyroZRadPerSec
# 
# UncalMag,utcTimeMillis,elapsedRealtimeNanos,UncalMagXMicroT,UncalMagYMicroT,UncalMagZMicroT,BiasXMicroT,BiasYMicroT,BiasZMicroT
# 
# Mag,utcTimeMillis,elapsedRealtimeNanos,MagXMicroT,MagYMicroT,MagZMicroT
# 
# OrientationDeg,utcTimeMillis,elapsedRealtimeNanos,yawDeg,rollDeg,pitchDeg
# 
# Fix,Provider,LatitudeDegrees,LongitudeDegrees,AltitudeMeters,SpeedMps,AccuracyMeters,BearingDegrees,UnixTimeMillis,SpeedAccuracyMps,BearingAccuracyDegrees,elapsedRealtimeNanos,VerticalAccuracyMeters,MockLocation,NumberOfUsedSignals,VerticalSpeedAccuracyMps,SolutionType
# 
# Nav,Svid,Type,Status,MessageId,Sub-messageId,Data(Bytes)
# 
# Status,UnixTimeMillis,SignalCount,SignalIndex,ConstellationType,Svid,CarrierFrequencyHz,Cn0DbHz,AzimuthDegrees,ElevationDegrees,UsedInFix,HasAlmanacData,HasEphemerisData,BasebandCn0DbHz
# 
# Agc,utcTimeMillis,TimeNanos,LeapSecond,TimeUncertaintyNanos,FullBiasNanos,BiasNanos,BiasUncertaintyNanos,DriftNanosPerSecond,DriftUncertaintyNanosPerSecond,HardwareClockDiscontinuityCount,AgcDb,CarrierFrequencyHz,ConstellationType
# 
Status,,37,0,1,25,1575420030,34.29,73.0,79.0,1,1,1,30.778114
Status,,37,1,1,25,1176450050,17.69,73.0,79.0,0,1,1,13.680992
Status,,37,2,6,15,1575420030,29.56,198.0,76.0,1,1,1,26.04995
Status,,37,3,6,15,1176450050,13.28,198.0,76.0,0,1,1,9.265007
Status,,37,4,3,14,1598062460,24.09,150.0,74.0,1,1,1,20.583809
Status,,37,5,6,30,1575420030,22.90,97.0,67.0,0,1,1,19.388771
Status,,37,6,6,30,1176450050,15.66,97.0,67.0,0,1,1,11.654434
Status,,37,7,5,28,1561097980,40.93,10.0,66.0,1,1,1,37.417267
Status,,37,8,3,17,1604249980,42.73,273.0,61.0,1,1,1,39.2163
Status,,37,9,1,29,1575420030,36.98,319.0,58.0,1,1,1,33.469193
Status,,37,10,6,27,1575420030,43.13,324.0,51.0,1,1,1,39.622902
Status,,37,11,6,27,1176450050,19.36,324.0,51.0,0,1,1,15.352854
Status,,37,12,1,12,1575420030,28.13,110.0,50.0,1,1,1,24.615692
Status,,37,13,5,27,1561097980,38.65,263.0,50.0,1,1,1,35.13743
Status,,37,14,5,27,1176450050,23.93,263.0,50.0,0,1,1,19.923103
Status,,37,15,3,15,1602000000,41.43,329.0,48.0,1,1,1,37.91778
Status,,37,16,6,34,1575420030,28.81,42.0,47.0,0,1,1,25.301783
Status,,37,17,6,34,1176450050,17.75,42.0,47.0,0,1,1,13.742033
Status,,37,18,3,24,1603124990,28.40,20.0,45.0,1,1,1,24.887459
Status,,37,19,5,13,1561097980,22.46,80.0,45.0,0,1,1,18.949324
Status,,37,20,5,8,1561097980,20.11,64.0,40.0,0,1,1,16.596825
Status,,37,21,1,28,1575420030,42.34,291.0,35.0,1,1,1,38.830936
Status,,37,22,1,28,1176450050,29.18,291.0,35.0,1,1,1,25.171486
Status,,37,23,5,46,1561097980,41.40,313.0,35.0,1,1,1,37.89345
Status,,37,24,5,46,1176450050,23.54,313.0,35.0,0,1,1,19.526054
Status,,37,25,1,18,1575420030,29.29,214.0,34.0,1,1,1,25.781479
Status,,37,26,1,5,1575420030,27.48,109.0,32.0,1,1,1,23.9694
Status,,37,27,1,20,1575420030,26.07,71.0,30.0,1,1,1,22.561003
Status,,37,28,5,23,1561097980,25.41,156.0,28.0,1,1,1,21.903242
Status,,37,29,6,13,1575420030,29.41,214.0,22.0,0,1,1,25.902317
Status,,37,30,1,11,1575420030,25.21,41.0,20.0,1,1,1,21.695135
Status,,37,31,6,2,1575420030,32.13,123.0,17.0,0,1,1,28.617603
Status,,37,32,1,31,1575420030,29.23,315.0,16.0,1,1,1,25.71777
Status,,37,33,5,7,1561097980,21.50,93.0,7.0,0,1,1,17.987724
Status,,37,34,5,33,1561097980,22.43,103.0,6.0,0,1,1,18.924326
Status,,37,35,1,24,1575420030,22.25,171.0,5.0,0,1,1,18.739582
Status,,37,36,1,24,1176450050,26.82,171.0,5.0,0,1,1,22.813051
Fix,FLP,32.0741221000,34.9075056000,71.4000015258789,0.10739944,8.335,58.3859,1715068869573,0.12719762,45.0,130663056571386,2.222476,0,,,
Raw,1715068869159,18105000000,,,-1399104069054511319,0.0,78.33585652665462,,,9,5,0.0,16419,201687084175284,44,27.479400634765625,-317.0149360082903,0.8715251584367003,17,-4300.4877354363825,0.10057083346237218,1575420030,,,,2,,1,33.296356201171875,23.96940040588379,10.652002101327463,1.0,10.652002101327463,1.0,C,130664005368850
Raw,1715068869159,18105000000,,,-1399104069054511319,0.0,78.33585652665462,,,9,11,0.0,16423,201687079828711,56,24.53360939025879,642.0333189520061,1.0068096782490792,16,10048.389727965196,340282346638528860000000000000000000000,1575420030,,,,1,,1,33.296356201171875,21.023609161376953,8.643837301404483,1.0,8.643837301404483,1.0,C,130664005368850
Raw,1715068869159,18105000000,,,-1399104069054511319,0.0,78.33585652665462,,,9,12,0.0,16419,201687087876946,43,27.875919342041016,384.91277892459834,0.8543601150012083,17,6012.544941881394,0.1003287906414715,1575420030,,,,1,,1,33.296356201171875,24.36591911315918,11.874363076425249,1.0,11.874363076425249,1.0,C,130664005368850
Raw,1715068869159,18105000000,,,-1399104069054511319,0.0,78.33585652665462,,,9,18,0.0,16431,201687083634608,38,29.205312728881836,-546.7083348805534,0.793815626516841,25,-8590.250759485501,0.00444655679166317,1575420030,,,,2,,1,33.296356201171875,25.6953125,8.294591422130656,1.0,8.294591422130656,1.0,C,130664005368850
Raw,1715068869159,18105000000,,,-1399104069054511319,0.0,78.33585652665462,,,9,20,0.0,16419,201687083503943,50,25.991069793701172,91.78681609490673,1.0372782627364074,16,1406.9246577926738,340282346638528860000000000000000000000,1575420030,,,,1,,1,33.296356201171875,22.481069564819336,8.381903488408195,1.0,8.381903488408195,1.0,C,130664005368850
Raw,1715068869159,18105000000,,,-1399104069054511319,0.0,78.33585652665462,,,9,24,0.0,16384,201687073479545,1000000000,22.249582290649414,658.4270487043909,299792458,16,1312.6053576476547,340282346638528860000000000000000000000,1575420030,,,,0,,1,33.296356201171875,18.739582061767578,-2.2992026350117816,1.0,-2.2992026350117816,1.0,C,130664005368850
Raw,1715068869159,18105000000,,,-1399104069054511319,0.0,78.33585652665462,,,9,25,0.0,16431,201687092660664,25,34.28811264038086,91.831293700669,0.5668712658664079,25,1619.6425699930091,0.0024767587892711163,1575420030,,,,2,,1,33.296356201171875,30.778114318847656,-7.01402319812662,1.0,-7.01402319812662,1.0,C,130664005368850
Raw,1715068869159,18105000000,,,-1399104069054511319,0.0,78.33585652665462,,,9,28,0.0,16431,201687084639606,13,42.34093475341797,-111.65168215247132,0.15,25,-1997.2679043102396,0.0010394867276772857,1575420030,,,,2,,1,33.296356201171875,38.830936431884766,8.963979953864575,1.0,8.963979953864575,1.0,C,130664005368850
Raw,1715068869159,18105000000,,,-1399104069054511319,0.0,78.33585652665462,,,9,29,0.0,16431,201687089050433,21,36.567352294921875,-64.03872044668674,0.15,25,-1160.735037098002,0.001905117416754365,1575420030,,,,2,,1,33.296356201171875,33.05735397338867,8.818460638680785,1.0,8.818460638680785,1.0,C,130664005368850
Raw,1715068869159,18105000000,,,-1399104069054511319,0.0,78.33585652665462,,,9,31,0.0,16431,201687079189077,38,29.22776985168457,-388.0035124119129,0.7956035575710327,25,-6101.427980405755,0.00443507544696331,1575420030,,,,2,,1,33.296356201171875,25.717769622802734,13.242242571428047,1.0,13.242242571428047,1.0,C,130664005368850
Raw,1715068869159,18105000000,,,-1399104069054511319,0.0,78.33585652665462,,,9,11,0.0,16384,201687079828730,1000000000,11.010000228881836,640.9517462767112,299792458,16,10688.64725189163,340282346638528860000000000000000000000,1176450050,,,,1,,1,27.79895782470703,7.0,10.768559749319673,11.00692285594456,10.768559749319673,1.0,Q,130664005368850
Raw,1715068869159,18105000000,,,-1399104069054511319,0.0,78.33585652665462,,,9,18,0.0,16384,201687083634584,1000000000,11.010000228881836,-546.7555390828375,299792458,16,-9147.057974937301,340282346638528860000000000000000000000,1176450050,,,,0,,1,27.79895782470703,7.0,7.450592277580854,11.00692285594456,7.450592277580854,1.0,Q,130664005368850
Raw,1715068869159,18105000000,,,-1399104069054511319,0.0,78.33585652665462,,,9,24,0.0,16384,201687073011275,1000000000,26.82305145263672,-306.9085333404944,299792458,16,-617.1071420125777,340282346638528860000000000000000000000,1176450050,,,,0,,1,27.79895782470703,22.813051223754883,1.1931295095813919,11.00692285594456,1.1931295095813919,1.0,Q,130664005368850
Raw,1715068869159,18105000000,,,-1399104069054511319,0.0,78.33585652665462,,,9,25,0.0,16384,201687092660621,1000000000,12.097345352172852,90.74607420252619,299792458,16,-2560.2046849313056,340282346638528860000000000000000000000,1176450050,,,,2,,1,27.79895782470703,8.087345123291016,-4.103569295754867,11.00692285594456,-4.103569295754867,1.0,Q,130664005368850
Raw,1715068869159,18105000000,,,-1399104069054511319,0.0,78.33585652665462,,,9,28,0.0,81921,201687084639531,6,26.434326171875,-111.79072153385613,0.9680581914518354,16,-6007.76438260271,340282346638528860000000000000000000000,1176450050,,,,2,,1,27.79895782470703,22.424325942993164,9.3132258331384,11.00692285594456,9.3132258331384,1.0,Q,130664005368850
Raw,1715068869159,18105000000,,,-1399104069054511319,0.0,78.33585652665462,,,9,14,0.0,32803,39669095116072,159,20.317829132080078,238.99533627752282,1.1955409484076522,16,4219.598121014355,340282346638528860000000000000000000000,1598062460,,,,1,,3,49.213958740234375,16.807828903198242,26.25165335754226,2.0000000474974513,26.25165335754226,2.0000000474974513,C,130664005368850
Raw,1715068869159,18105000000,,,-1399104069054511319,0.0,78.33585652665462,,,9,15,0.0,32995,39669091448972,33,41.42778015136719,-502.9244775208076,0.15,25,-8918.12530853055,0.0011355610331520438,1602000000,,,,2,,3,49.213958740234375,37.917781829833984,21.973392728175728,2.0000000474974513,21.973392728175728,2.0000000474974513,C,130664005368850
Raw,1715068869159,18105000000,,,-1399104069054511319,0.0,78.33585652665462,,,9,24,0.0,32803,39669090737644,83,28.367530822753906,533.6160704441636,0.8327674808807521,17,8658.771869248747,0.09831470200958639,1603124990,,,,2,,3,49.213958740234375,24.85753059387207,23.39948066500294,2.0000000474974513,23.39948066500294,2.0000000474974513,C,130664005368850
Raw,1715068869159,18105000000,,,-1399104069054511319,0.0,78.33585652665462,,,9,17,0.0,32995,39669093646709,33,42.72629928588867,-89.63628125323044,0.15,25,-1612.6343034636807,0.0009765060385689139,1604249980,,,,2,,3,49.213958740234375,39.21630096435547,17.695128917694092,2.0000000474974513,17.695128917694092,2.0000000474974513,C,130664005368850
Raw,1715068869159,18105000000,,,-1399104069054511319,0.0,78.33585652665462,,,9,7,0.0,81955,201673022696057,36,21.497724533081055,70.51866879462139,1.1402482868907988,16,871.7081090322326,340282346638528860000000000000000000000,1561097980,,,,1,,5,49.938201904296875,17.98772430419922,1.1578609714273753,4.8356409757302465,1.1578609714273753,1.5000000237487257,I,130664005368850
Raw,1715068869159,18105000000,,,-1399104069054511319,0.0,78.33585652665462,,,9,8,0.0,16416,201673033091907,1000000000,20.10682487487793,-67.82135762356378,299792458,16,-138.30255060185215,340282346638528860000000000000000000000,1561097980,,,,0,,5,49.938201904296875,16.596824645996094,4.857860485266176,4.8356409757302465,4.857860485266176,1.5000000237487257,I,130664005368850
Raw,1715068869159,18105000000,,,-1399104069054511319,0.0,78.33585652665462,,,9,13,0.0,81954,201673034536072,1000000000,22.45932388305664,-120.84019314242317,299792458,16,-246.99455491883776,340282346638528860000000000000000000000,1561097980,,,,0,,5,49.938201904296875,18.949323654174805,25.757860683793247,4.8356409757302465,25.757860683793247,1.5000000237487257,I,130664005368850
Raw,1715068869159,18105000000,,,-1399104069054511319,0.0,78.33585652665462,,,9,23,0.0,81955,201673077722611,28,24.516447067260742,610.4258622569691,1.2974811764635907,16,10145.1812216697,340282346638528860000000000000000000000,1561097980,,,,1,,5,49.938201904296875,21.006446838378906,-6.642139422297642,4.8356409757302465,-6.642139422297642,1.5000000237487257,I,130664005368850
Raw,1715068869159,18105000000,,,-1399104069054511319,0.0,78.33585652665462,,,9,27,0.0,81967,201673084171555,9,38.64742660522461,-213.3065708173241,0.15,25,783171.7996284883,0.0016049459809437394,1561097980,,,,2,,5,49.938201904296875,35.137428283691406,19.757860870330173,4.8356409757302465,19.757860870330173,1.5000000237487257,I,130664005368850
Raw,1715068869159,18105000000,,,-1399104069054511319,0.0,78.33585652665462,,,9,28,0.0,81967,201673086519431,7,40.92726516723633,219.67366789140465,0.15,25,265477.444208673,0.0012344360584393144,1561097980,,,,2,,5,49.938201904296875,37.417266845703125,19.85786081420264,4.8356409757302465,19.85786081420264,1.5000000237487257,I,130664005368850
Raw,1715068869159,18105000000,,,-1399104069054511319,0.0,78.33585652665462,,,9,33,0.0,16384,201673070145011,1000000000,22.287254333496094,-359.97788332022765,299792458,16,-5213.2549822308865,340282346638528860000000000000000000000,1561097980,,,,0,,5,49.938201904296875,18.777254104614258,60.957859218313196,4.8356409757302465,60.957859218313196,1.5000000237487257,I,130664005368850
Raw,1715068869159,18105000000,,,-1399104069054511319,0.0,78.33585652665462,,,9,46,0.0,81967,201673080028590,7,41.40345001220703,-410.48344867294554,0.15,25,780162.6357406748,0.0011685822391882539,1561097980,,,,2,,5,49.938201904296875,37.89345169067383,-3.142139796203775,4.8356409757302465,-3.142139796203775,1.5000000237487257,I,130664005368850
Raw,1715068869159,18105000000,,,-1399104069054511319,0.0,78.33585652665462,,,9,23,0.0,16416,201673077813737,1000000000,11.010000228881836,-499.38051552665274,299792458,16,-10017.85163928412,340282346638528860000000000000000000000,1176450050,,,,0,,5,27.79895782470703,7.0,25.203917205043687,11.506922879693287,25.203917205043687,1.5000000237487257,Q,130664005368850
Raw,1715068869159,18105000000,,,-1399104069054511319,0.0,78.33585652665462,,,9,27,0.0,81959,201673084171497,39,23.933103561401367,-213.76869484531687,1.0678719937437804,16,-11716.964372960167,340282346638528860000000000000000000000,1176450050,,,,2,,5,27.79895782470703,19.92310333251953,32.36345971835409,11.506922879693287,32.36345971835409,1.5000000237487257,Q,130664005368850
Raw,1715068869159,18105000000,,,-1399104069054511319,0.0,78.33585652665462,,,9,28,0.0,16416,201673086519410,1000000000,11.010000228881836,218.78149142700704,299792458,16,-9573.136453219628,340282346638528860000000000000000000000,1176450050,,,,1,,5,27.79895782470703,7.0,32.829120890719196,11.506922879693287,32.829120890719196,1.5000000237487257,Q,130664005368850
Raw,1715068869159,18105000000,,,-1399104069054511319,0.0,78.33585652665462,,,9,33,0.0,16416,201673069813657,1000000000,11.010000228881836,-501.5315616051769,299792458,16,-11014.55963270492,340282346638528860000000000000000000000,1176450050,,,,1,,5,27.79895782470703,7.0,-10.943040445503414,11.506922879693287,-10.943040445503414,1.5000000237487257,Q,130664005368850
Raw,1715068869159,18105000000,,,-1399104069054511319,0.0,78.33585652665462,,,9,46,0.0,81959,201673080028560,6,20.886838912963867,-410.5627585492741,1.2041137512999054,29,-12716.992052255637,0.011621317826211452,1176450050,,,,2,,5,27.79895782470703,16.87683868408203,34.924596166362164,11.506922879693287,34.924596166362164,1.5000000237487257,Q,130664005368850
Raw,1715068869159,18105000000,,,-1399104069054511319,0.0,78.33585652665462,,,9,2,0.0,84002,201687069172169,1000000000,27.432741165161133,449.7975622720073,299792458,16,2305.6836750535604,340282346638528860000000000000000000000,1575420030,,,,0,,6,33.296356201171875,23.922740936279297,2.1827871553328833,1.5000000237487257,2.1827871553328833,1.5000000237487257,C,130664005368850
Raw,1715068869159,18105000000,,,-1399104069054511319,0.0,78.33585652665462,,,9,13,0.0,84002,201687070813897,1000000000,19.770702362060547,-498.8574861488537,299792458,16,-3762.136845161797,340282346638528860000000000000000000000,1575420030,,,,1,,6,33.296356201171875,16.26070213317871,-7.363269263988071,1.5000000237487257,-7.363269263988071,1.5000000237487257,C,130664005368850
Raw,1715068869159,18105000000,,,-1399104069054511319,0.0,78.33585652665462,,,9,15,0.0,85026,201687081449252,43,27.877521514892578,-126.04980738991844,0.8538512745760904,25,-1824.0661631559667,0.005180997774004936,1575420030,,,,2,,6,33.296356201171875,24.367521286010742,-7.5960998501706225,1.5000000237487257,-7.5960998501706225,1.5000000237487257,C,130664005368850
Raw,1715068869159,18105000000,,,-1399104069054511319,0.0,78.33585652665462,,,9,27,0.0,21546,201687077790532,12,43.13290023803711,-304.28026470573786,0.15,25,-5411.930633628284,0.0009489003568887711,1575420030,,,,2,,6,33.296356201171875,39.622901916503906,-2.939486883896498,1.5000000237487257,-2.939486883896498,1.5000000237487257,C,130664005368850
Raw,1715068869159,18105000000,,,-1399104069054511319,0.0,78.33585652665462,,,9,30,0.0,84000,201687080462573,1000000000,20.820615768432617,129.43134943751386,299792458,16,1067.092243101345,340282346638528860000000000000000000000,1575420030,,,,1,,6,33.296356201171875,17.31061553955078,-1.775333704459121,1.5000000237487257,-1.775333704459121,1.5000000237487257,C,130664005368850
Raw,1715068869159,18105000000,,,-1399104069054511319,0.0,78.33585652665462,,,9,34,0.0,84000,201687077351657,1000000000,20.258731842041016,378.0283272017298,299792458,16,4974.643017987275,340282346638528860000000000000000000000,1575420030,,,,2,,6,33.296356201171875,16.74873161315918,-5.267793391886022,1.5000000237487257,-5.267793391886022,1.5000000237487257,C,130664005368850
Raw,1715068869159,18105000000,,,-1399104069054511319,0.0,78.33585652665462,,,9,2,0.0,16416,201687069172104,1000000000,11.010000228881836,449.3695547829939,299792458,16,2308.051514216111,340282346638528860000000000000000000000,1176450050,,,,0,,6,27.79895782470703,7.0,6.430991813911833,11.506922879693287,6.430991813911833,1.5000000237487257,Q,130664005368850
Raw,1715068869159,18105000000,,,-1399104069054511319,0.0,78.33585652665462,,,9,15,0.0,16416,201687081449235,1000000000,13.275007247924805,-127.10060360697321,299792458,16,-1959.0112789327402,340282346638528860000000000000000000000,1176450050,,,,0,,6,27.79895782470703,9.265007019042969,-11.105486549298947,11.506922879693287,-11.105486549298947,1.5000000237487257,Q,130664005368850
Raw,1715068869159,18105000000,,,-1399104069054511319,0.0,78.33585652665462,,,9,27,0.0,84003,201687077790484,20,18.590702056884766,-304.147479455125,1.3069659513370206,16,-4247.623187901784,340282346638528860000000000000000000000,1176450050,,,,2,,6,27.79895782470703,14.580702781677246,-2.7547823443289183,11.506922879693287,-2.7547823443289183,1.5000000237487257,Q,130664005368850
Raw,1715068869159,18105000000,,,-1399104069054511319,0.0,78.33585652665462,,,9,30,0.0,84003,201687080462330,13,14.739227294921875,132.17522576479575,1.4806429605090896,16,963.8267949178077,340282346638528860000000000000000000000,1176450050,,,,1,,6,27.79895782470703,10.729227066040039,-0.6671062682339488,11.506922879693287,-0.6671062682339488,1.5000000237487257,Q,130664005368850
Raw,1715068869159,18105000000,,,-1399104069054511319,0.0,78.33585652665462,,,9,34,0.0,84000,201687077351611,1000000000,16.280853271484375,378.1702806331473,299792458,16,5732.344547008622,340282346638528860000000000000000000000,1176450050,,,,2,,6,27.79895782470703,12.270853042602539,-6.9301341982893145,11.506922879693287,-6.9301341982893145,1.5000000237487257,Q,130664005368850
Agc,1715068869159,18105000000,,,-1399104069054511319,0.0,78.33585652665462,,,9,33.008399963378906,1575420000,1
Agc,1715068869159,18105000000,,,-1399104069054511319,0.0,78.33585652665462,,,9,27.611833572387695,1176450000,1
Agc,1715068869159,18105000000,,,-1399104069054511319,0.0,78.33585652665462,,,9,48.98435974121094,1602000000,3
Agc,1715068869159,18105000000,,,-1399104069054511319,0.0,78.33585652665462,,,9,33.008399963378906,1575420000,6
Agc,1715068869159,18105000000,,,-1399104069054511319,0.0,78.33585652665462,,,9,27.611833572387695,1176450000,6
Agc,1715068869159,18105000000,,,-1399104069054511319,0.0,78.33585652665462,,,9,48.66847610473633,1561096000,5
Agc,1715068869159,18105000000,,,-1399104069054511319,0.0,78.33585652665462,,,9,33.008399963378906,1575420000,5
Agc,1715068869159,18105000000,,,-1399104069054511319,0.0,78.33585652665462,,,9,27.611833572387695,1176450000,5
Status,,37,0,1,25,1575420030,34.29,73.0,79.0,1,1,1,30.778114
Status,,37,1,1,25,1176450050,17.69,73.0,79.0,0,1,1,13.680992
Status,,37,2,6,15,1575420030,29.56,198.0,76.0,1,1,1,26.04995
Status,,37,3,6,15,1176450050,13.28,198.0,76.0,0,1,1,9.265007
Status,,37,4,3,14,1598062460,24.09,150.0,74.0,1,1,1,20.583809
Status,,37,5,6,30,1575420030,22.90,97.0,67.0,0,1,1,19.388771
Status,,37,6,6,30,1176450050,15.66,97.0,67.0,0,1,1,11.654434
Status,,37,7,5,28,1561097980,40.93,10.0,66.0,1,1,1,37.417267
Status,,37,8,3,17,1604249980,42.73,273.0,61.0,1,1,1,39.2163
Status,,37,9,1,29,1575420030,36.98,319.0,58.0,1,1,1,33.469193
Status,,37,10,6,27,1575420030,43.13,324.0,51.0,1,1,1,39.622902
Status,,37,11,6,27,1176450050,19.36,324.0,51.0,0,1,1,15.352854
Status,,37,12,1,12,1575420030,28.13,110.0,50.0,1,1,1,24.615692
Status,,37,13,5,27,1561097980,38.65,263.0,50.0,1,1,1,35.13743
Status,,37,14,5,27,1176450050,23.93,263.0,50.0,0,1,1,19.923103
Status,,37,15,3,15,1602000000,41.43,329.0,48.0,1,1,1,37.91778
Status,,37,16,6,34,1575420030,28.81,42.0,47.0,0,1,1,25.301783
Status,,37,17,6,34,1176450050,17.75,42.0,47.0,0,1,1,13.742033
Status,,37,18,3,24,1603124990,28.40,20.0,45.0,1,1,1,24.887459
Status,,37,19,5,13,1561097980,22.46,80.0,45.0,0,1,1,18.949324
Status,,37,20,5,8,1561097980,20.11,64.0,40.0,0,1,1,16.596825
Status,,37,21,1,28,1575420030,42.34,291.0,35.0,1,1,1,38.830936
Status,,37,22,1,28,1176450050,29.18,291.0,35.0,1,1,1,25.171486
Status,,37,23,5,46,1561097980,41.40,313.0,35.0,1,1,1,37.89345
Status,,37,24,5,46,1176450050,23.54,313.0,35.0,0,1,1,19.526054
Status,,37,25,1,18,1575420030,29.29,214.0,34.0,1,1,1,25.781479
Status,,37,26,1,5,1575420030,27.48,109.0,32.0,1,1,1,23.9694
Status,,37,27,1,20,1575420030,26.07,71.0,30.0,1,1,1,22.561003
Status,,37,28,5,23,1561097980,25.41,156.0,28.0,1,1,1,21.903242
Status,,37,29,6,13,1575420030,29.41,214.0,22.0,0,1,1,25.902317
Status,,37,30,1,11,1575420030,25.21,41.0,20.0,1,1,1,21.695135
Status,,37,31,6,2,1575420030,32.13,123.0,17.0,0,1,1,28.617603
Status,,37,32,1,31,1575420030,29.23,315.0,16.0,1,1,1,25.71777
Status,,37,33,5,7,1561097980,21.50,93.0,7.0,0,1,1,17.987724
Status,,37,34,5,33,1561097980,22.43,103.0,6.0,0,1,1,18.924326
Status,,37,35,1,24,1575420030,22.25,171.0,5.0,0,1,1,18.739582
Status,,37,36,1,24,1176450050,26.82,171.0,5.0,0,1,1,22.813051
Fix,GPS,32.0741727728,34.9072614986,122.70863651413009,0.0,23.395338,,1715068869159,0.30894992,,130663956683628,32.756287,0,,,
Fix,FLP,32.0741286000,34.9074774000,71.4000015258789,0.10654819,13.355,57.98294,1715068870474,0.30894992,45.0,130663956683628,2.2245576,0,,,
Status,1715068869159,40,0,1,25,1575420030,34.24,73.0,79.0,1,1,1,30.732004
Status,1715068869159,40,1,1,25,1176450050,17.53,73.0,79.0,0,1,1,13.52455
Status,1715068869159,40,2,6,15,1575420030,29.50,198.0,76.0,1,1,1,25.99412
Status,1715068869159,40,3,6,15,1176450050,13.26,198.0,76.0,0,1,1,9.251252
Status,1715068869159,40,4,3,14,1598062460,23.53,150.0,74.0,0,1,1,20.017893
Status,1715068869159,40,5,6,30,1575420030,22.69,97.0,67.0,1,1,1,19.181143
Status,1715068869159,40,6,6,30,1176450050,15.26,97.0,67.0,0,1,1,11.247618
Status,1715068869159,40,7,5,28,1561097980,41.70,10.0,66.0,1,1,1,38.193134
Status,1715068869159,40,8,5,28,1176450050,13.07,10.0,66.0,0,1,1,9.058943
Status,1715068869159,40,9,3,17,1604249980,42.67,273.0,61.0,1,1,1,39.15781
Status,1715068869159,40,10,1,29,1575420030,38.18,319.0,58.0,1,1,1,34.66892
Status,1715068869159,40,11,6,27,1575420030,43.28,324.0,51.0,1,1,1,39.773575
Status,1715068869159,40,12,6,27,1176450050,19.34,324.0,51.0,0,1,1,15.326102
Status,1715068869159,40,13,1,12,1575420030,27.98,110.0,50.0,1,1,1,24.473795
Status,1715068869159,40,14,5,27,1561097980,39.85,263.0,50.0,1,1,1,36.34349
Status,1715068869159,40,15,5,27,1176450050,23.80,263.0,50.0,1,1,1,19.787306
Status,1715068869159,40,16,3,15,1602000000,41.35,329.0,48.0,1,1,1,37.84439
Status,1715068869159,40,17,6,34,1575420030,27.42,42.0,47.0,0,1,1,23.9133
Status,1715068869159,40,18,6,34,1176450050,19.11,42.0,47.0,0,1,1,15.102486
Status,1715068869159,40,19,3,24,1603124990,28.40,20.0,45.0,1,1,1,24.886023
Status,1715068869159,40,20,5,13,1561097980,21.96,80.0,45.0,0,1,1,18.449926
Status,1715068869159,40,21,5,8,1561097980,19.63,64.0,40.0,0,1,1,16.11912
Status,1715068869159,40,22,1,28,1575420030,42.70,291.0,35.0,1,1,1,39.18556
Status,1715068869159,40,23,1,28,1176450050,28.58,291.0,35.0,1,1,1,24.571972
Status,1715068869159,40,24,5,46,1561097980,41.82,313.0,35.0,1,1,1,38.306297
Status,1715068869159,40,25,5,46,1176450050,23.17,313.0,35.0,0,1,1,19.16132
Status,1715068869159,40,26,1,18,1575420030,29.54,214.0,34.0,1,1,1,26.032755
Status,1715068869159,40,27,1,5,1575420030,27.91,109.0,32.0,1,1,1,24.397255
Status,1715068869159,40,28,1,20,1575420030,25.94,71.0,30.0,1,1,1,22.431862
Status,1715068869159,40,29,5,23,1561097980,25.35,156.0,28.0,0,1,1,21.83551
Status,1715068869159,40,30,6,13,1575420030,28.26,214.0,22.0,0,1,1,24.746868
Status,1715068869159,40,31,1,11,1575420030,24.88,41.0,20.0,0,1,1,21.373888
Status,1715068869159,40,32,6,2,1575420030,31.30,123.0,17.0,0,1,1,27.790655
Status,1715068869159,40,33,1,31,1575420030,29.66,315.0,16.0,1,1,1,26.148077
Status,1715068869159,40,34,5,43,1561097980,20.60,53.0,13.0,0,1,1,17.090807
Status,1715068869159,40,35,5,43,1176450050,25.59,53.0,13.0,0,1,1,21.578527
Status,1715068869159,40,36,5,7,1561097980,21.37,93.0,7.0,1,1,1,17.860422
Status,1715068869159,40,37,5,33,1561097980,23.01,103.0,6.0,0,1,1,19.497824
Status,1715068869159,40,38,1,24,1575420030,22.17,171.0,5.0,0,1,1,18.656275
Status,1715068869159,40,39,1,24,1176450050,26.34,171.0,5.0,0,1,1,22.330763
Raw,1715068870159,19105000000,,,-1399104069054511253,0.0,56.028318666393766,,,9,5,0.0,16419,201688084176340,43,27.907255172729492,-316.87604999795985,0.9773055873409677,16,-4617.460944641142,340282346638528860000000000000000000000,1575420030,,,,1,,1,33.008399963378906,24.397254943847656,10.652002101327463,1.0,10.652002101327463,1.0,C,130665004639887
Raw,1715068870159,19105000000,,,-1399104069054511253,0.0,56.028318666393766,,,9,11,0.0,16423,201688079826566,69,21.9926700592041,642.6121753935895,1.1210725116550568,16,10690.034661945736,340282346638528860000000000000000000000,1575420030,,,,1,,1,33.008399963378906,18.482669830322266,8.643837301404483,1.0,8.643837301404483,1.0,C,130665004639887
Raw,1715068870159,19105000000,,,-1399104069054511253,0.0,56.028318666393766,,,9,12,0.0,16419,201688087875668,47,26.70672035217285,385.14457371141,0.9069372967349856,21,6397.64427652253,0.10107545430128252,1575420030,,,,1,,1,33.008399963378906,23.196720123291016,11.874363076425249,1.0,11.874363076425249,1.0,C,130665004639887
Raw,1715068870159,19105000000,,,-1399104069054511253,0.0,56.028318666393766,,,9,18,0.0,16431,201688083636436,37,29.542755126953125,-546.6206066374637,0.778641477826826,25,-9136.956192133992,0.004277122672647238,1575420030,,,,2,,1,33.008399963378906,26.03275489807129,8.294591422130656,1.0,8.294591422130656,1.0,C,130665004639887
Raw,1715068870159,19105000000,,,-1399104069054511253,0.0,56.028318666393766,,,9,20,0.0,16419,201688083503667,55,24.77959632873535,91.46759980711408,0.992811507443697,21,1498.1269913108874,0.1025481649330703,1575420030,,,,1,,1,33.008399963378906,21.269596099853516,8.381903488408195,1.0,8.381903488408195,1.0,C,130665004639887
Raw,1715068870159,19105000000,,,-1399104069054511253,0.0,56.028318666393766,,,9,24,0.0,16384,201688073477225,1000000000,21.416501998901367,655.9089686515726,299792458,16,1968.2481418576917,340282346638528860000000000000000000000,1575420030,,,,0,,1,33.008399963378906,17.90650177001953,-2.2992026350117816,1.0,-2.2992026350117816,1.0,C,130665004639887
Raw,1715068870159,19105000000,,,-1399104069054511253,0.0,56.028318666393766,,,9,25,0.0,16431,201688092660362,26,33.82701873779297,91.95691311479794,0.5876061803534727,25,1711.5129691525444,0.002611791715025902,1575420030,,,,2,,1,33.008399963378906,30.317018508911133,-7.01402319812662,1.0,-7.01402319812662,1.0,C,130665004639887
Raw,1715068870159,19105000000,,,-1399104069054511253,0.0,56.028318666393766,,,9,28,0.0,16431,201688084639986,13,42.695556640625,-111.59241276057816,0.15,25,-2108.8852716067277,0.0009979018941521645,1575420030,,,,2,,1,33.008399963378906,39.1855583190918,8.963979953864575,1.0,8.963979953864575,1.0,C,130665004639887
Raw,1715068870159,19105000000,,,-1399104069054511253,0.0,56.028318666393766,,,9,29,0.0,16431,201688089050638,18,38.178916931152344,-64.0362537288959,0.15,25,-1224.8332738876743,0.0016784940380603075,1575420030,,,,2,,1,33.008399963378906,34.66891860961914,8.818460638680785,1.0,8.818460638680785,1.0,C,130665004639887
Raw,1715068870159,19105000000,,,-1399104069054511253,0.0,56.028318666393766,,,9,31,0.0,16431,201688079190375,37,29.658077239990234,-387.94008496032393,0.7762533760148029,25,-6489.451867973314,0.004220711532980204,1575420030,,,,2,,1,33.008399963378906,26.1480770111084,13.242242571428047,1.0,13.242242571428047,1.0,C,130665004639887
Raw,1715068870159,19105000000,,,-1399104069054511253,0.0,56.028318666393766,,,9,11,0.0,16384,201688079826532,1000000000,11.010000228881836,641.3450578249845,299792458,16,11328.75099345271,340282346638528860000000000000000000000,1176450050,,,,1,,1,27.611833572387695,7.0,10.768559749319673,11.00692285594456,10.768559749319673,1.0,Q,130665004639887
Raw,1715068870159,19105000000,,,-1399104069054511253,0.0,56.028318666393766,,,9,18,0.0,16384,201688083636410,1000000000,11.010000228881836,-547.4693961347077,299792458,16,-9694.973895268651,340282346638528860000000000000000000000,1176450050,,,,0,,1,27.611833572387695,7.0,7.450592277580854,11.00692285594456,7.450592277580854,1.0,Q,130665004639887
Raw,1715068870159,19105000000,,,-1399104069054511253,0.0,56.028318666393766,,,9,24,0.0,16384,201688073477165,1000000000,22.00016212463379,-307.96618013131024,299792458,16,26.084585864277244,340282346638528860000000000000000000000,1176450050,,,,0,,1,27.611833572387695,17.990161895751953,1.1931295095813919,11.00692285594456,1.1931295095813919,1.0,Q,130665004639887
Raw,1715068870159,19105000000,,,-1399104069054511253,0.0,56.028318666393766,,,9,25,0.0,81921,201688092660302,40,16.12657928466797,91.32875639985429,299.79474076768383,16,-2468.58961244053,340282346638528860000000000000000000000,1176450050,,,,2,,1,27.611833572387695,12.116579055786133,-4.103569295754867,11.00692285594456,-4.103569295754867,1.0,Q,130665004639887
Raw,1715068870159,19105000000,,,-1399104069054511253,0.0,56.028318666393766,,,9,28,0.0,81921,201688084639897,8,23.186349868774414,-111.85525666528207,1.0871468876860897,16,-6119.360710833286,340282346638528860000000000000000000000,1176450050,,,,2,,1,27.611833572387695,19.176349639892578,9.3132258331384,11.00692285594456,9.3132258331384,1.0,Q,130665004639887
Raw,1715068870159,19105000000,,,-1399104069054511253,0.0,56.028318666393766,,,9,14,0.0,32803,39670095115308,185,18.434648513793945,239.75505127464453,1.2802253352337685,16,4460.389940104359,340282346638528860000000000000000000000,1598062460,,,,1,,3,48.98435974121094,14.92464828491211,26.25165335754226,2.0000000474974513,26.25165335754226,2.0000000474974513,C,130665004639887
Raw,1715068870159,19105000000,,,-1399104069054511253,0.0,56.028318666393766,,,9,15,0.0,32995,39670091450668,33,40.69388961791992,-502.86773023069713,0.15,25,-9421.113587648279,0.0012356772786006331,1602000000,,,,2,,3,48.98435974121094,37.18389129638672,21.973392728175728,2.0000000474974513,21.973392728175728,2.0000000474974513,C,130665004639887
Raw,1715068870159,19105000000,,,-1399104069054511253,0.0,56.028318666393766,,,9,24,0.0,32867,39670090735847,83,28.383094787597656,532.9226969486635,0.832067192906885,16,9192.237985786991,340282346638528860000000000000000000000,1603124990,,,,2,,3,48.98435974121094,24.87309455871582,23.39948066500294,2.0000000474974513,23.39948066500294,2.0000000474974513,C,130665004639887
Raw,1715068870159,19105000000,,,-1399104069054511253,0.0,56.028318666393766,,,9,17,0.0,32995,39670093646975,33,42.141387939453125,-89.47482413606775,0.15,25,-1702.2393363250992,0.0010445291409268975,1604249980,,,,2,,3,48.98435974121094,38.63138961791992,17.695128917694092,2.0000000474974513,17.695128917694092,2.0000000474974513,C,130665004639887
Raw,1715068870159,19105000000,,,-1399104069054511253,0.0,56.028318666393766,,,9,7,0.0,81955,201674022695746,40,20.22469711303711,70.76679333841452,1.197494831735499,16,939.1067705775152,340282346638528860000000000000000000000,1561097980,,,,1,,5,48.66847610473633,16.714696884155273,1.1578609714273753,4.8356409757302465,1.1578609714273753,1.5000000237487257,I,130665004639887
Raw,1715068870159,19105000000,,,-1399104069054511253,0.0,56.028318666393766,,,9,8,0.0,81954,201674033092039,1000000000,15.329774856567383,-67.82135762356378,299792458,16,-206.05841381411398,340282346638528860000000000000000000000,1561097980,,,,0,,5,48.66847610473633,11.819774627685547,4.857860485266176,4.8356409757302465,4.857860485266176,1.5000000237487257,I,130665004639887
Raw,1715068870159,19105000000,,,-1399104069054511253,0.0,56.028318666393766,,,9,13,0.0,81954,201674034536479,1000000000,17.46534538269043,-123.65327389767464,299792458,16,-370.7707829888529,340282346638528860000000000000000000000,1561097980,,,,0,,5,48.66847610473633,13.955345153808594,25.757860683793247,4.8356409757302465,25.757860683793247,1.5000000237487257,I,130665004639887
Raw,1715068870159,19105000000,,,-1399104069054511253,0.0,56.028318666393766,,,9,23,0.0,81955,201674077720574,27,24.73592185974121,611.2706300243435,0.997332758316801,16,10757.092577040557,340282346638528860000000000000000000000,1561097980,,,,1,,5,48.66847610473633,21.225921630859375,-6.642139422297642,4.8356409757302465,-6.642139422297642,1.5000000237487257,I,130665004639887
Raw,1715068870159,19105000000,,,-1399104069054511253,0.0,56.028318666393766,,,9,27,0.0,81967,201674084172272,8,39.85348892211914,-213.26412111772493,0.15,25,782958.4705610172,0.0013968743151053786,1561097980,,,,2,,5,48.66847610473633,36.34349060058594,19.757860870330173,4.8356409757302465,19.757860870330173,1.5000000237487257,I,130665004639887
Raw,1715068870159,19105000000,,,-1399104069054511253,0.0,56.028318666393766,,,9,28,0.0,81967,201674086518683,7,41.70313262939453,219.72806349201505,0.15,25,265697.1126282257,0.0011289509711787105,1561097980,,,,2,,5,48.66847610473633,38.19313430786133,19.85786081420264,4.8356409757302465,19.85786081420264,1.5000000237487257,I,130665004639887
Raw,1715068870159,19105000000,,,-1399104069054511253,0.0,56.028318666393766,,,9,30,0.0,81954,201674070510831,1000000000,24.423738479614258,-446.4592538205111,299792458,16,-897.5569248162749,340282346638528860000000000000000000000,1561097980,,,,0,,5,48.66847610473633,20.913738250732422,25.257860964430918,4.8356409757302465,25.257860964430918,1.5000000237487257,I,130665004639887
Raw,1715068870159,19105000000,,,-1399104069054511253,0.0,56.028318666393766,,,9,33,0.0,16384,201674070146200,1000000000,23.007823944091797,-358.9383343138254,299792458,16,-5573.033885948727,340282346638528860000000000000000000000,1561097980,,,,0,,5,48.66847610473633,19.49782371520996,60.957859218313196,4.8356409757302465,60.957859218313196,1.5000000237487257,I,130665004639887
Raw,1715068870159,19105000000,,,-1399104069054511253,0.0,56.028318666393766,,,9,43,0.0,81954,201674073488487,1000000000,20.600807189941406,526.4700017850259,299792458,16,1059.2069493771642,340282346638528860000000000000000000000,1561097980,,,,0,,5,48.66847610473633,17.09080696105957,18.65786069245427,4.8356409757302465,18.65786069245427,1.5000000237487257,I,130665004639887
Raw,1715068870159,19105000000,,,-1399104069054511253,0.0,56.028318666393766,,,9,46,0.0,81967,201674080029951,7,41.8162956237793,-410.454274090162,0.15,25,779752.1422071388,0.0011143380543217063,1561097980,,,,2,,5,48.66847610473633,38.306297302246094,-3.142139796203775,4.8356409757302465,-3.142139796203775,1.5000000237487257,I,130665004639887
Raw,1715068870159,19105000000,,,-1399104069054511253,0.0,56.028318666393766,,,9,23,0.0,16418,201674077720575,1000000000,11.010000228881836,610.4212952077951,299792458,16,-9413.440253133133,340282346638528860000000000000000000000,1176450050,,,,1,,5,27.611833572387695,7.0,25.203917205043687,11.506922879693287,25.203917205043687,1.5000000237487257,Q,130665004639887
Raw,1715068870159,19105000000,,,-1399104069054511253,0.0,56.028318666393766,,,9,27,0.0,81959,201674084172211,37,22.57512664794922,-213.05689978206624,1.1289387692474406,16,-11931.43208357294,340282346638528860000000000000000000000,1176450050,,,,2,,5,27.611833572387695,18.565126419067383,32.36345971835409,11.506922879693287,32.36345971835409,1.5000000237487257,Q,130665004639887
Raw,1715068870159,19105000000,,,-1399104069054511253,0.0,56.028318666393766,,,9,28,0.0,16418,201674086518670,1000000000,13.06894302368164,219.04856155631978,299792458,16,-9353.263588521426,340282346638528860000000000000000000000,1176450050,,,,1,,5,27.611833572387695,9.058942794799805,32.829120890719196,11.506922879693287,32.829120890719196,1.5000000237487257,Q,130665004639887
Raw,1715068870159,19105000000,,,-1399104069054511253,0.0,56.028318666393766,,,9,30,0.0,16418,201674070791516,1000000000,26.81656837463379,-300.6246826664708,299792458,16,-608.5291109735444,340282346638528860000000000000000000000,1176450050,,,,0,,5,27.611833572387695,22.806568145751953,33.178365974714254,11.506922879693287,33.178365974714254,1.5000000237487257,Q,130665004639887
Raw,1715068870159,19105000000,,,-1399104069054511253,0.0,56.028318666393766,,,9,33,0.0,16418,201674070145988,1000000000,11.010000228881836,-359.89673299124684,299792458,16,-11373.130046338209,340282346638528860000000000000000000000,1176450050,,,,0,,5,27.611833572387695,7.0,-10.943040445503414,11.506922879693287,-10.943040445503414,1.5000000237487257,Q,130665004639887
Raw,1715068870159,19105000000,,,-1399104069054511253,0.0,56.028318666393766,,,9,43,0.0,16418,201674073791525,1000000000,25.58852767944336,-305.3354575596841,299792458,16,-607.0908801779057,340282346638528860000000000000000000000,1176450050,,,,0,,5,27.611833572387695,21.578527450561523,27.182977982874153,11.506922879693287,27.182977982874153,1.5000000237487257,Q,130665004639887
Raw,1715068870159,19105000000,,,-1399104069054511253,0.0,56.028318666393766,,,9,46,0.0,81959,201674080029894,94,19.888702392578125,-410.78589639212896,299.80684003974943,29,-13127.916356535308,0.01843644492328167,1176450050,,,,2,,5,27.611833572387695,15.878702163696289,34.924596166362164,11.506922879693287,34.924596166362164,1.5000000237487257,Q,130665004639887
Raw,1715068870159,19105000000,,,-1399104069054511253,0.0,56.028318666393766,,,9,2,0.0,84002,201688069170696,1000000000,23.858123779296875,450.3056635338494,299792458,16,2755.3337445645666,340282346638528860000000000000000000000,1575420030,,,,1,,6,33.008399963378906,20.34812355041504,2.1827871553328833,1.5000000237487257,2.1827871553328833,1.5000000237487257,C,130665004639887
Raw,1715068870159,19105000000,,,-1399104069054511253,0.0,56.028318666393766,,,9,13,0.0,85026,201688070815476,97,17.857831954956055,-498.07420313304647,1.30467111030935,16,-4260.270471821241,340282346638528860000000000000000000000,1575420030,,,,1,,6,33.008399963378906,14.347831726074219,-7.363269263988071,1.5000000237487257,-7.363269263988071,1.5000000237487257,C,130665004639887
Raw,1715068870159,19105000000,,,-1399104069054511253,0.0,56.028318666393766,,,9,15,0.0,85026,201688081449689,39,29.001644134521484,-125.95358409454042,0.8033008007940583,25,-1950.1188281467084,0.0045520528219640255,1575420030,,,,2,,6,33.008399963378906,25.49164390563965,-7.5960998501706225,1.5000000237487257,-7.5960998501706225,1.5000000237487257,C,130665004639887
Raw,1715068870159,19105000000,,,-1399104069054511253,0.0,56.028318666393766,,,9,27,0.0,21546,201688077791551,12,43.283573150634766,-304.2470002281716,0.15,25,-5716.244481244665,0.0009325819555670023,1575420030,,,,2,,6,33.008399963378906,39.77357482910156,-2.939486883896498,1.5000000237487257,-2.939486883896498,1.5000000237487257,C,130665004639887
Raw,1715068870159,19105000000,,,-1399104069054511253,0.0,56.028318666393766,,,9,30,0.0,85026,201688080462075,76,20.822494506835938,131.59401763371227,1.17093035270248,16,1198.5317065109298,340282346638528860000000000000000000000,1575420030,,,,1,,6,33.008399963378906,17.3124942779541,-1.775333704459121,1.5000000237487257,-1.775333704459121,1.5000000237487257,C,130665004639887
Raw,1715068870159,19105000000,,,-1399104069054511253,0.0,56.028318666393766,,,9,34,0.0,84002,201688077350398,1000000000,14.9269437789917,378.3026909767384,299792458,16,5353.968826764463,340282346638528860000000000000000000000,1575420030,,,,1,,6,33.008399963378906,11.416943550109863,-5.267793391886022,1.5000000237487257,-5.267793391886022,1.5000000237487257,C,130665004639887
Raw,1715068870159,19105000000,,,-1399104069054511253,0.0,56.028318666393766,,,9,2,0.0,16418,201688069170603,1000000000,11.010000228881836,450.3158882708062,299792458,16,2757.429742497644,340282346638528860000000000000000000000,1176450050,,,,0,,6,27.611833572387695,7.0,6.430991813911833,11.506922879693287,6.430991813911833,1.5000000237487257,Q,130665004639887
Raw,1715068870159,19105000000,,,-1399104069054511253,0.0,56.028318666393766,,,9,15,0.0,16418,201688081449638,1000000000,13.137456893920898,-126.72673610014624,299792458,16,-2085.8385355556816,340282346638528860000000000000000000000,1176450050,,,,0,,6,27.611833572387695,9.127456665039062,-11.105486549298947,11.506922879693287,-11.105486549298947,1.5000000237487257,Q,130665004639887
Raw,1715068870159,19105000000,,,-1399104069054511253,0.0,56.028318666393766,,,9,27,0.0,84003,201688077791494,21,19.0953369140625,-304.1845270853653,1.2842731594842354,16,-4551.911903532892,340282346638528860000000000000000000000,1176450050,,,,2,,6,27.611833572387695,15.085336685180664,-2.7547823443289183,11.506922879693287,-2.7547823443289183,1.5000000237487257,Q,130665004639887
Raw,1715068870159,19105000000,,,-1399104069054511253,0.0,56.028318666393766,,,9,30,0.0,16418,201688080461890,1000000000,11.596269607543945,131.47182350646386,299792458,16,1097.2467031114163,340282346638528860000000000000000000000,1176450050,,,,1,,6,27.611833572387695,7.586269378662109,-0.6671062682339488,11.506922879693287,-0.6671062682339488,1.5000000237487257,Q,130665004639887
Raw,1715068870159,19105000000,,,-1399104069054511253,0.0,56.028318666393766,,,9,34,0.0,84003,201688077350353,99,19.112485885620117,378.2042608423005,299.8063628853581,16,6108.768417953392,340282346638528860000000000000000000000,1176450050,,,,2,,6,27.611833572387695,15.102485656738281,-6.9301341982893145,11.506922879693287,-6.9301341982893145,1.5000000237487257,Q,130665004639887
Agc,1715068870159,19105000000,,,-1399104069054511253,0.0,56.028318666393766,,,9,32.40216064453125,1575420000,1
Agc,1715068870159,19105000000,,,-1399104069054511253,0.0,56.028318666393766,,,9,27.057228088378906,1176450000,1
Agc,1715068870159,19105000000,,,-1399104069054511253,0.0,56.028318666393766,,,9,48.086429595947266,1602000000,3
Agc,1715068870159,19105000000,,,-1399104069054511253,0.0,56.028318666393766,,,9,32.40216064453125,1575420000,6
Agc,1715068870159,19105000000,,,-1399104069054511253,0.0,56.028318666393766,,,9,27.057228088378906,1176450000,6
Agc,1715068870159,19105000000,,,-1399104069054511253,0.0,56.028318666393766,,,9,49.79810333251953,1561096000,5
Agc,1715068870159,19105000000,,,-1399104069054511253,0.0,56.028318666393766,,,9,32.40216064453125,1575420000,5
Agc,1715068870159,19105000000,,,-1399104069054511253,0.0,56.028318666393766,,,9,27.057228088378906,1176450000,5
Status,1715068869159,40,0,1,25,1575420030,34.24,73.0,79.0,1,1,1,30.732004
Status,1715068869159,40,1,1,25,1176450050,17.53,73.0,79.0,0,1,1,13.52455
Status,1715068869159,40,2,6,15,1575420030,29.50,198.0,76.0,1,1,1,25.99412
Status,1715068869159,40,3,6,15,1176450050,13.26,198.0,76.0,0,1,1,9.251252
Status,1715068869159,40,4,3,14,1598062460,23.53,150.0,74.0,0,1,1,20.017893
Status,1715068869159,40,5,6,30,1575420030,22.69,97.0,67.0,1,1,1,19.181143
Status,1715068869159,40,6,6,30,1176450050,15.26,97.0,67.0,0,1,1,11.247618
Status,1715068869159,40,7,5,28,1561097980,41.70,10.0,66.0,1,1,1,38.193134
Status,1715068869159,40,8,5,28,1176450050,13.07,10.0,66.0,0,1,1,9.058943
Status,1715068869159,40,9,3,17,1604249980,42.67,273.0,61.0,1,1,1,39.15781
Status,1715068869159,40,10,1,29,1575420030,38.18,319.0,58.0,1,1,1,34.66892
Status,1715068869159,40,11,6,27,1575420030,43.28,324.0,51.0,1,1,1,39.773575
Status,1715068869159,40,12,6,27,1176450050,19.34,324.0,51.0,0,1,1,15.326102
Status,1715068869159,40,13,1,12,1575420030,27.98,110.0,50.0,1,1,1,24.473795
Status,1715068869159,40,14,5,27,1561097980,39.85,263.0,50.0,1,1,1,36.34349
Status,1715068869159,40,15,5,27,1176450050,23.80,263.0,50.0,1,1,1,19.787306
Status,1715068869159,40,16,3,15,1602000000,41.35,329.0,48.0,1,1,1,37.84439
Status,1715068869159,40,17,6,34,1575420030,27.42,42.0,47.0,0,1,1,23.9133
Status,1715068869159,40,18,6,34,1176450050,19.11,42.0,47.0,0,1,1,15.102486
Status,1715068869159,40,19,3,24,1603124990,28.40,20.0,45.0,1,1,1,24.886023
Status,1715068869159,40,20,5,13,1561097980,21.96,80.0,45.0,0,1,1,18.449926
Status,1715068869159,40,21,5,8,1561097980,19.63,64.0,40.0,0,1,1,16.11912
Status,1715068869159,40,22,1,28,1575420030,42.70,291.0,35.0,1,1,1,39.18556
Status,1715068869159,40,23,1,28,1176450050,28.58,291.0,35.0,1,1,1,24.571972
Status,1715068869159,40,24,5,46,1561097980,41.82,313.0,35.0,1,1,1,38.306297
Status,1715068869159,40,25,5,46,1176450050,23.17,313.0,35.0,0,1,1,19.16132
Status,1715068869159,40,26,1,18,1575420030,29.54,214.0,34.0,1,1,1,26.032755
Status,1715068869159,40,27,1,5,1575420030,27.91,109.0,32.0,1,1,1,24.397255
Status,1715068869159,40,28,1,20,1575420030,25.94,71.0,30.0,1,1,1,22.431862
Status,1715068869159,40,29,5,23,1561097980,25.35,156.0,28.0,0,1,1,21.83551
Status,1715068869159,40,30,6,13,1575420030,28.26,214.0,22.0,0,1,1,24.746868
Status,1715068869159,40,31,1,11,1575420030,24.88,41.0,20.0,0,1,1,21.373888
Status,1715068869159,40,32,6,2,1575420030,31.30,123.0,17.0,0,1,1,27.790655
Status,1715068869159,40,33,1,31,1575420030,29.66,315.0,16.0,1,1,1,26.148077
Status,1715068869159,40,34,5,43,1561097980,20.60,53.0,13.0,0,1,1,17.090807
Status,1715068869159,40,35,5,43,1176450050,25.59,53.0,13.0,0,1,1,21.578527
Status,1715068869159,40,36,5,7,1561097980,21.37,93.0,7.0,1,1,1,17.860422
Status,1715068869159,40,37,5,33,1561097980,23.01,103.0,6.0,0,1,1,19.497824
Status,1715068869159,40,38,1,24,1575420030,22.17,171.0,5.0,0,1,1,18.656275
Status,1715068869159,40,39,1,24,1176450050,26.34,171.0,5.0,0,1,1,22.330763
Fix,GPS,32.0742010543,34.9073172265,119.31322030106384,0.0,11.423259,,1715068870159,0.30746642,,130664955199254,17.754112,0,,,
Fix,FLP,32.0741618000,34.9074051000,71.4000015258789,0.47178945,12.872,309.00388,1715068871472,0.30746642,45.0,130664955199254,2.230649,0,,,
Status,1715068870159,40,0,1,25,1575420030,34.12,73.0,79.0,1,1,1,30.607544
Status,1715068870159,40,1,1,25,1176450050,17.47,73.0,79.0,0,1,1,13.464519
Status,1715068870159,40,2,6,15,1575420030,29.46,198.0,76.0,1,1,1,25.947435
Status,1715068870159,40,3,3,14,1598062460,22.87,150.0,74.0,0,1,1,19.358435
Status,1715068870159,40,4,6,30,1575420030,22.52,97.0,67.0,1,1,1,19.007637
Status,1715068870159,40,5,5,28,1561097980,41.67,10.0,66.0,1,1,1,38.160187
Status,1715068870159,40,6,3,17,1604249980,42.91,273.0,61.0,1,1,1,39.39698
Status,1715068870159,40,7,1,29,1575420030,38.16,319.0,58.0,1,1,1,34.65088
Status,1715068870159,40,8,6,27,1575420030,43.26,324.0,51.0,1,1,1,39.751522
Status,1715068870159,40,9,6,27,1176450050,19.52,324.0,51.0,0,1,1,15.507817
Status,1715068870159,40,10,1,12,1575420030,27.71,110.0,50.0,1,1,1,24.20437
Status,1715068870159,40,11,5,27,1561097980,40.47,263.0,50.0,1,1,1,36.958057
Status,1715068870159,40,12,5,27,1176450050,23.25,263.0,50.0,0,1,1,19.244625
Status,1715068870159,40,13,3,15,1602000000,41.31,329.0,48.0,1,1,1,37.798283
Status,1715068870159,40,14,6,34,1575420030,26.26,42.0,47.0,0,1,1,22.746296
Status,1715068870159,40,15,6,34,1176450050,18.77,42.0,47.0,0,1,1,14.764825
Status,1715068870159,40,16,3,24,1603124990,28.47,20.0,45.0,1,1,1,24.955435
Status,1715068870159,40,17,5,13,1561097980,21.29,80.0,45.0,0,1,1,17.7824
Status,1715068870159,40,18,5,8,1561097980,19.35,64.0,40.0,1,1,1,15.837167
Status,1715068870159,40,19,1,28,1575420030,42.67,291.0,35.0,1,1,1,39.16301
Status,1715068870159,40,20,1,28,1176450050,27.97,291.0,35.0,1,1,1,23.96457
Status,1715068870159,40,21,5,46,1561097980,41.77,313.0,35.0,1,1,1,38.260914
Status,1715068870159,40,22,5,46,1176450050,22.37,313.0,35.0,0,1,1,18.359589
Status,1715068870159,40,23,1,18,1575420030,29.49,214.0,34.0,1,1,1,25.97687
Status,1715068870159,40,24,1,5,1575420030,27.78,109.0,32.0,1,1,1,24.274334
Status,1715068870159,40,25,5,38,1561097980,19.42,54.0,31.0,0,1,1,15.911243
Status,1715068870159,40,26,1,20,1575420030,25.69,71.0,30.0,1,1,1,22.182499
Status,1715068870159,40,27,5,23,1561097980,25.27,156.0,28.0,0,1,1,21.757362
Status,1715068870159,40,28,6,13,1575420030,27.36,214.0,22.0,1,1,1,23.854946
Status,1715068870159,40,29,1,11,1575420030,24.50,41.0,20.0,0,1,1,20.987898
Status,1715068870159,40,30,1,11,1176450050,12.09,41.0,20.0,0,1,1,8.084946
Status,1715068870159,40,31,6,2,1575420030,30.32,123.0,17.0,1,1,1,26.813555
Status,1715068870159,40,32,6,2,1176450050,14.46,123.0,17.0,0,1,1,10.4506855
Status,1715068870159,40,33,1,31,1575420030,30.52,315.0,16.0,1,1,1,27.009272
Status,1715068870159,40,34,5,43,1561097980,20.10,53.0,13.0,0,1,1,16.592707
Status,1715068870159,40,35,5,43,1176450050,25.08,53.0,13.0,0,1,1,21.073378
Status,1715068870159,40,36,5,7,1561097980,21.12,93.0,7.0,1,1,1,17.61132
Status,1715068870159,40,37,5,33,1561097980,22.96,103.0,6.0,0,1,1,19.448404
Status,1715068870159,40,38,1,24,1575420030,22.02,171.0,5.0,0,1,1,18.513468
Status,1715068870159,40,39,1,24,1176450050,25.47,171.0,5.0,0,1,1,21.459215
Raw,1715068870999,19945000000,,,-1399104069054511193,0.0,47.56197168225366,,,9,5,0.0,16419,201688924177240,47,26.67804718017578,-316.9371939249618,1.147655496396891,16,-4883.761036859016,340282346638528860000000000000000000000,1575420030,,,,1,,1,32.40216064453125,23.168046951293945,10.652002101327463,1.0,10.652002101327463,1.0,C,130665845058751
Raw,1715068870999,19945000000,,,-1399104069054511193,0.0,47.56197168225366,,,9,11,0.0,16423,201688919824760,75,21.02399253845215,642.3241786359717,1.1646325537831244,16,11228.845187428844,340282346638528860000000000000000000000,1575420030,,,,1,,1,32.40216064453125,17.513992309570312,8.643837301404483,1.0,8.643837301404483,1.0,C,130665845058751
Raw,1715068870999,19945000000,,,-1399104069054511193,0.0,47.56197168225366,,,9,12,0.0,16419,201688927874661,53,25.2895565032959,385.25956791971794,0.9706654328085325,21,6721.060476734133,0.10212613284875428,1575420030,,,,1,,1,32.40216064453125,21.779556274414062,11.874363076425249,1.0,11.874363076425249,1.0,C,130665845058751
Raw,1715068870999,19945000000,,,-1399104069054511193,0.0,47.56197168225366,,,9,18,0.0,16431,201688923637968,39,28.983896255493164,-546.5852631300495,0.8037730292053333,29,-9596.245506165866,0.004561363719403744,1575420030,,,,2,,1,32.40216064453125,25.473896026611328,8.294591422130656,1.0,8.294591422130656,1.0,C,130665845058751
Raw,1715068870999,19945000000,,,-1399104069054511193,0.0,47.56197168225366,,,9,20,0.0,16419,201688923503484,61,23.448240280151367,91.49547073593561,1.0526810700946956,21,1574.6859643548996,0.10377418590997135,1575420030,,,,1,,1,32.40216064453125,19.93824005126953,8.381903488408195,1.0,8.381903488408195,1.0,C,130665845058751
Raw,1715068870999,19945000000,,,-1399104069054511193,0.0,47.56197168225366,,,9,24,0.0,16384,201688913475392,1000000000,20.73820686340332,655.7010656667835,299792458,16,2518.4033884807995,340282346638528860000000000000000000000,1575420030,,,,0,,1,32.40216064453125,17.228206634521484,-2.2992026350117816,1.0,-2.2992026350117816,1.0,C,130665845058751
Raw,1715068870999,19945000000,,,-1399104069054511193,0.0,47.56197168225366,,,9,25,0.0,16431,201688932660106,28,32.99739456176758,91.9717219421571,0.6249133564882645,29,1788.63178984647,0.002873555989935994,1575420030,,,,2,,1,32.40216064453125,29.487396240234375,-7.01402319812662,1.0,-7.01402319812662,1.0,C,130665845058751
Raw,1715068870999,19945000000,,,-1399104069054511193,0.0,47.56197168225366,,,9,28,0.0,16431,201688924640299,13,42.47005844116211,-111.63539073825342,0.15,29,-2202.6610244542658,0.0010241478448733687,1575420030,,,,2,,1,32.40216064453125,38.960060119628906,8.963979953864575,1.0,8.963979953864575,1.0,C,130665845058751
Raw,1715068870999,19945000000,,,-1399104069054511193,0.0,47.56197168225366,,,9,29,0.0,16431,201688929050813,19,37.99850845336914,-64.0089579415282,0.15,29,-1278.7562203967052,0.0017137211980298162,1575420030,,,,2,,1,32.40216064453125,34.48851013183594,8.818460638680785,1.0,8.818460638680785,1.0,C,130665845058751
Raw,1715068870999,19945000000,,,-1399104069054511193,0.0,47.56197168225366,,,9,31,0.0,16431,201688919191452,35,30.519271850585938,-387.67645715912,0.7375265856850786,29,-6815.436443911933,0.003822309197857976,1575420030,,,,2,,1,32.40216064453125,27.0092716217041,13.242242571428047,1.0,13.242242571428047,1.0,C,130665845058751
Raw,1715068870999,19945000000,,,-1399104069054511193,0.0,47.56197168225366,,,9,11,0.0,16384,201688919824709,1000000000,11.093332290649414,641.7334614995184,299792458,16,11867.32661083148,340282346638528860000000000000000000000,1176450050,,,,1,,1,27.057228088378906,7.083332061767578,10.768559749319673,11.00692285594456,10.768559749319673,1.0,Q,130665845058751
Raw,1715068870999,19945000000,,,-1399104069054511193,0.0,47.56197168225366,,,9,18,0.0,16384,201688923637943,1000000000,11.010000228881836,-546.7555390828375,299792458,16,-10156.005137061644,340282346638528860000000000000000000000,1176450050,,,,1,,1,27.057228088378906,7.0,7.450592277580854,11.00692285594456,7.450592277580854,1.0,Q,130665845058751
Raw,1715068870999,19945000000,,,-1399104069054511193,0.0,47.56197168225366,,,9,24,0.0,16384,201688913475283,1000000000,17.625286102294922,655.6305149817813,299792458,16,588.5147516439495,340282346638528860000000000000000000000,1176450050,,,,0,,1,27.057228088378906,13.615285873413086,1.1931295095813919,11.00692285594456,1.1931295095813919,1.0,Q,130665845058751
Raw,1715068870999,19945000000,,,-1399104069054511193,0.0,47.56197168225366,,,9,25,0.0,81921,201688932660047,40,16.934232711791992,91.56668602884002,299.79474076768383,16,-2391.9638006269493,340282346638528860000000000000000000000,1176450050,,,,2,,1,27.057228088378906,12.924232482910156,-4.103569295754867,11.00692285594456,-4.103569295754867,1.0,Q,130665845058751
Raw,1715068870999,19945000000,,,-1399104069054511193,0.0,47.56197168225366,,,9,28,0.0,81921,201688924640211,6,22.507944107055664,-111.06689536345294,1.1176540146388998,16,-6213.1812311491285,340282346638528860000000000000000000000,1176450050,,,,2,,1,27.057228088378906,18.497943878173828,9.3132258331384,11.00692285594456,9.3132258331384,1.0,Q,130665845058751
Raw,1715068870999,19945000000,,,-1399104069054511193,0.0,47.56197168225366,,,9,14,0.0,32803,39670935114628,209,16.933313369750977,239.73559019197,1.3477385544329863,16,4661.811032360855,340282346638528860000000000000000000000,1598062460,,,,1,,3,48.086429595947266,13.42331314086914,26.25165335754226,2.0000000474974513,26.25165335754226,2.0000000474974513,C,130665845058751
Raw,1715068870999,19945000000,,,-1399104069054511193,0.0,47.56197168225366,,,9,15,0.0,32995,39670931452068,33,40.8933219909668,-502.74329518193235,0.15,29,-9843.65308547989,0.0012076287530362606,1602000000,,,,2,,3,48.086429595947266,37.383323669433594,21.973392728175728,2.0000000474974513,21.973392728175728,2.0000000474974513,C,130665845058751
Raw,1715068870999,19945000000,,,-1399104069054511193,0.0,47.56197168225366,,,9,24,0.0,32867,39670930734276,82,28.465435028076172,533.3164856513281,0.82836418725952,21,9640.30437880468,0.09826076492833882,1603124990,,,,2,,3,48.086429595947266,24.955434799194336,23.39948066500294,2.0000000474974513,23.39948066500294,2.0000000474974513,C,130665845058751
Raw,1715068870999,19945000000,,,-1399104069054511193,0.0,47.56197168225366,,,9,17,0.0,32995,39670933647267,33,42.906978607177734,-89.59073857070183,0.15,29,-1777.5426852064543,0.0009564032079651952,1604249980,,,,2,,3,48.086429595947266,39.39698028564453,17.695128917694092,2.0000000474974513,17.695128917694092,2.0000000474974513,C,130665845058751
Raw,1715068870999,19945000000,,,-1399104069054511193,0.0,47.56197168225366,,,9,7,0.0,81955,201674862695543,44,18.879404067993164,70.89213157227715,1.2579910589288916,16,998.5825903494222,340282346638528860000000000000000000000,1561097980,,,,1,,5,49.79810333251953,15.369404792785645,1.1578609714273753,4.8356409757302465,1.1578609714273753,1.5000000237487257,I,130665845058751
Raw,1715068870999,19945000000,,,-1399104069054511193,0.0,47.56197168225366,,,9,8,0.0,81955,201674873092110,140,16.809595108032227,-67.71381469231312,1.3529381260716518,16,-260.85413237970755,340282346638528860000000000000000000000,1561097980,,,,0,,5,49.79810333251953,13.29959487915039,4.857860485266176,4.8356409757302465,4.857860485266176,1.5000000237487257,I,130665845058751
Raw,1715068870999,19945000000,,,-1399104069054511193,0.0,47.56197168225366,,,9,13,0.0,81954,201674874536860,1000000000,15.284666061401367,-123.2785543294346,299792458,16,-474.3026601252378,340282346638528860000000000000000000000,1561097980,,,,0,,5,49.79810333251953,11.774665832519531,25.757860683793247,4.8356409757302465,25.757860683793247,1.5000000237487257,I,130665845058751
Raw,1715068870999,19945000000,,,-1399104069054511193,0.0,47.56197168225366,,,9,23,0.0,81955,201674917718837,28,24.564027786254883,610.3206156312267,1.0050622866793062,16,11270.239740425428,340282346638528860000000000000000000000,1561097980,,,,2,,5,49.79810333251953,21.054027557373047,-6.642139422297642,4.8356409757302465,-6.642139422297642,1.5000000237487257,I,130665845058751
Raw,1715068870999,19945000000,,,-1399104069054511193,0.0,47.56197168225366,,,9,27,0.0,81967,201674924172859,7,40.468055725097656,-212.89049218809362,0.15,21,782779.2085474946,0.0973211977681235,1561097980,,,,2,,5,49.79810333251953,36.95805740356445,19.757860870330173,4.8356409757302465,19.757860870330173,1.5000000237487257,I,130665845058751
Raw,1715068870999,19945000000,,,-1399104069054511193,0.0,47.56197168225366,,,9,28,0.0,81967,201674926518083,7,41.3736686706543,219.89626041495512,0.15,21,265881.5482578997,0.09719233916179244,1561097980,,,,2,,5,49.79810333251953,37.863670349121094,19.85786081420264,4.8356409757302465,19.85786081420264,1.5000000237487257,I,130665845058751
Raw,1715068870999,19945000000,,,-1399104069054511193,0.0,47.56197168225366,,,9,30,0.0,81954,201674910512086,1000000000,19.091951370239258,-449.46392910510554,299792458,16,-1274.1326862058681,340282346638528860000000000000000000000,1561097980,,,,0,,5,49.79810333251953,15.581952095031738,25.257860964430918,4.8356409757302465,25.257860964430918,1.5000000237487257,I,130665845058751
